County,Crime Rate per 100k,Murder,Rape,Robbery,Assault,Burglary,Larceny,MV Theft,Arson,Population,Avg_Rating,Median_Rating,Avg_Price,Rest_Count,Avg_Lat,Avg_Lng,CountyName,State
"St. Louis city, MO",1791.995377,119,200,1778,3609,4995,13791,3543,464,318416,4.37,4.5,1.9777777777777776,50,38.62669009381907,-90.29331451089479,St. Louis city,MO
"Crittenden County, AR",1754.914968,8,38,165,662,1482,1753,189,28,49746,3.36,3.5,1.3571428571428572,50,35.16986503573323,-90.42485720950485,Crittenden County,AR
"Alexander County, IL",1664.700485,1,2,5,119,82,184,12,2,7629,4.16,4.0,1.72,50,37.25809047359649,-89.52092435455488,Alexander County,IL
"Kenedy County, TX",1456.31068,0,3,1,2,5,4,4,0,412,3.625,3.75,1.2,8,27.23255358656849,-97.7406083504528,Kenedy County,TX
"De Soto Parish, LA",1447.40243,3,4,17,368,149,494,60,0,27083,3.875,4.0,1.2857142857142858,16,32.06503659445174,-93.69933311557773,De Soto Parish,LA
"Baltimore city, MD",1419.5375689999994,216,317,3638,4660,7804,18055,4009,251,622104,4.29,4.5,2.042553191489361,50,39.293057591462905,-76.6044378014107,Baltimore city,MD
"Shelby County, TN",1315.0037519999996,135,483,3512,8224,14011,30620,3233,435,939465,4.31,4.5,1.7608695652173914,50,35.137195279425725,-89.99641625192818,Shelby County,TN
"Marlboro County, SC",1253.437132,3,20,32,296,408,1074,67,5,28003,3.24,3.5,1.1111111111111112,25,34.60873491720075,-79.6840260418615,Marlboro County,SC
"Storey County, NV",1217.656012,0,7,2,39,23,55,8,2,3942,4.42,4.5,1.9,50,39.506570496395,-119.79357374449795,Storey County,NV
"District of Columbia, DC",1216.801325,88,236,4037,3505,3519,23575,3663,51,646449,4.29,4.5,2.071428571428572,50,38.90357579966643,-77.02976576908245,District of Columbia,DC
"Dillon County, SC",1165.583272,8,17,48,291,595,1206,105,12,31229,3.3690476190476186,3.5,1.3125,42,34.435796446554214,-79.36059947951495,Dillon County,SC
"Scott County, MO",1163.145839,2,7,26,422,236,1002,39,8,39290,3.5,4.0,1.0,5,37.1123779310798,-89.54135196257586,Scott County,MO
"Philadelphia County, PA",1150.2963300000001,332,881,7984,8669,12004,38595,6401,0,1553165,4.23,4.0,2.1041666666666665,50,39.952756703666616,-75.16163102364206,Philadelphia County,PA
"Pershing County, NV",1148.756725,0,3,1,75,27,43,5,0,6877,3.9,4.0,1.5476190476190477,50,40.66833779022306,-117.85137548641623,Pershing County,NV
"Greenwood County, SC",1140.226324,7,39,73,676,965,2564,122,12,69723,3.9,4.0,1.5813953488372092,50,34.202376568620394,-82.15735883760588,Greenwood County,SC
"Madison County, TN",1138.4238300000004,13,33,196,882,1300,2604,180,27,98733,3.94,4.0,1.6444444444444444,50,35.64975296845292,-88.8358093430052,Madison County,TN
"Davidson County, TN",1129.513728,65,312,1753,5309,5875,20373,1418,100,658602,4.29,4.5,2.02,50,36.16586993159432,-86.77761110950105,Davidson County,TN
"Marion County, IN",1083.5081189999999,102,453,3486,6017,15125,29122,4757,414,928281,4.3,4.5,1.9166666666666667,50,39.77202612730839,-86.14995911881583,Marion County,IN
"Wayne County, MI",1065.188284,433,803,5879,11795,19882,34706,15251,766,1775273,4.29,4.5,1.5416666666666667,50,42.27363413007025,-83.2018397452594,Wayne County,MI
"Jackson County, MO",1026.623686,116,358,1913,4594,9695,25994,4953,318,679996,3.78,4.0,1.6875,50,39.03085822986701,-94.3630529483486,Jackson County,MO
"Pemiscot County, MO",998.7095326,0,6,21,151,192,463,23,2,17823,3.28125,3.5,1.1666666666666667,16,36.21722163667479,-89.7038424970503,Pemiscot County,MO
"Iberville Parish, LA",974.0162436,5,9,26,285,266,928,26,0,33367,4.05,4.0,1.9361702127659572,50,29.95625463516614,-90.06948126456983,Iberville Parish,LA
"Pulaski County, AR",959.9165822999997,61,179,1058,2458,7065,18011,1805,130,391284,4.28,4.5,1.7708333333333333,50,34.7567084357577,-92.37409942138152,Pulaski County,AR
"Jefferson County, AR",959.1343197999997,14,42,139,507,1400,2306,255,44,73191,3.94,4.0,1.3421052631578947,50,34.286565682184246,-91.98053250039287,Jefferson County,AR
"Muskogee County, OK",954.4400666000001,3,34,41,593,878,1324,142,23,70303,3.8333333333333335,4.0,1.25,15,35.47323443514793,-95.4663519198673,Muskogee County,OK
"Barnwell County, SC",953.9310095000001,5,4,33,169,349,691,74,10,22119,3.033333333333333,3.0,1.4,15,33.259648369884275,-81.41896187185442,Barnwell County,SC
"Tangipahoa Parish, LA",952.8593755,11,64,185,935,2683,4262,218,1,125412,3.2285714285714286,3.5,1.2,35,30.547359965031408,-90.47504324256464,Tangipahoa Parish,LA
"Marion County, SC",941.6313295,8,12,51,231,771,1060,92,12,32072,4.32,4.5,1.5319148936170213,50,33.8394766689718,-79.1108138960639,Marion County,SC
"Dougherty County, GA",930.4176661,4,32,240,589,1600,3844,266,13,92969,4.07,4.0,1.6,50,31.60231097570561,-84.19467656634893,Dougherty County,GA
"Carter County, OK",930.0694973999999,4,42,37,368,450,1327,109,23,48491,2.888888888888889,3.0,1.4444444444444444,27,34.196854259520265,-97.1536390067143,Carter County,OK
"Genesee County, MI",922.7783983999999,69,242,980,2542,6105,8311,936,313,415376,4.16,4.0,1.48,50,42.995353013915825,-83.69782878410517,Genesee County,MI
"Macon County, AL",919.3417310000001,6,10,25,140,516,640,110,3,19688,3.125,3.25,1.125,16,32.43054430507167,-85.6926405991345,Macon County,AL
"Milwaukee County, WI",912.6349471000001,103,276,3426,4919,8744,29434,5223,351,956023,4.28,4.5,1.9574468085106385,50,43.02754424607665,-87.92777883103138,Milwaukee County,WI
"Richland County, SC",911.4452882000003,24,184,809,2622,4965,12511,2087,51,399256,4.21,4.0,1.7959183673469388,50,34.005480646278464,-81.00361490936105,Richland County,SC
"Grundy County, TN",911.2461105000001,3,4,1,115,157,167,63,12,13498,4.428571428571429,4.5,1.0,7,35.415867527886256,-85.66827555066861,Grundy County,TN
"Greene County, AL",903.4766697000001,0,2,7,70,48,90,15,12,8744,2.4,1.0,1.0,5,32.83480123332322,-87.93845406124309,Greene County,AL
"Rock County, MN",892.8571429,0,0,0,85,9,52,3,0,9520,3.59375,3.5,1.3,16,43.65900088808485,-96.2102353809873,Rock County,MN
"San Joaquin County, CA",887.1644385,89,152,1992,4016,8019,16847,4398,158,704379,4.25,4.5,1.6938775510204085,50,37.89838584279651,-121.26767382421305,San Joaquin County,CA
"Pottawattamie County, IA",873.5225606,1,79,83,647,1166,3283,567,55,92728,4.357142857142857,4.5,1.0,7,41.30904198791156,-95.64944253710935,Pottawattamie County,IA
"Nolan County, TX",871.1844117999997,0,27,10,94,143,345,19,1,15037,3.397959183673469,3.5,1.2,49,32.440405509485046,-100.35282351481492,Nolan County,TX
"Winnebago County, IL",854.9331535,15,196,553,1721,2939,7356,492,101,290666,4.15,4.0,1.5909090909090908,50,42.2778686561626,-89.08316773413698,Winnebago County,IL
"Suffolk County, MA",831.2342903,60,310,2257,3653,3956,16223,1998,11,755503,4.17,4.0,2.1836734693877546,50,42.350137945577394,-71.07223346870042,Suffolk County,MA
"Saginaw County, MI",828.830479,29,126,242,1232,1751,2707,223,56,196542,4.11,4.0,1.4888888888888892,50,43.42093280389509,-84.00320591348806,Saginaw County,MI
"Dallas County, AL",828.6503477000001,9,24,70,245,743,1415,158,26,41996,3.1041666666666665,3.25,1.3529411764705883,24,32.41721984016567,-87.04022765347028,Dallas County,AL
"Fulton County, GA",826.1767583,123,216,3365,4428,11091,31070,7645,135,984293,4.27,4.5,2.061224489795918,50,33.832841222474734,-84.43571139979697,Fulton County,GA
"Anchorage Municipality, AK",824.7217146,15,303,488,1676,1159,8724,845,98,300950,4.26,4.0,2.0625,50,61.19565505801282,-149.88576443951692,Anchorage Municipality,AK
"Madison County, FL",822.2981632,1,7,13,133,153,317,16,4,18728,3.8846153846153846,4.0,1.2,13,30.466163619836856,-83.41697871460488,Madison County,FL
"Phillips County, AR",818.6675817,1,8,26,132,478,442,33,11,20399,4.28,4.5,1.3703703703703705,50,34.34958563368305,-90.61590439042637,Phillips County,AR
"Sangamon County, IL",817.9969369,40,160,318,1110,2104,6278,875,76,199145,4.11,4.0,1.6666666666666667,50,39.78299718859046,-89.6488920932623,Sangamon County,IL
"Haywood County, TN",812.1158911,0,7,10,131,226,396,26,5,18224,3.4411764705882355,4.0,1.1538461538461535,17,35.577961463586625,-89.25406421677158,Haywood County,TN
"Lucas County, OH",810.9662621,40,184,1192,2122,7618,3320,1529,547,436393,4.23,4.0,1.7234042553191489,50,41.616494694204356,-83.5701080732337,Lucas County,OH
"Robeson County, NC",809.8427036,13,32,273,775,2937,4637,385,69,134841,3.1590909090909087,3.25,1.2352941176470589,44,34.656131461482275,-79.10593747134902,Robeson County,NC
"Meade County, KS",805.8945428999997,0,1,0,34,5,23,0,0,4343,3.2,3.5,1.6666666666666667,5,37.261292027211745,-100.35825295161659,Meade County,KS
"Escambia County, FL",798.51676,22,162,502,1756,3899,9920,680,52,305817,3.57,3.5,1.5263157894736843,50,30.571037374759854,-87.26711377658508,Escambia County,FL
"Jefferson County, AL",798.3574913,85,268,1597,3315,9910,19810,1809,185,659479,4.26,4.5,1.6511627906976745,50,33.49982253586088,-86.81928068191498,Jefferson County,AL
"Nicholas County, WV",793.3756981,1,7,2,196,86,308,19,16,25965,3.310344827586207,3.5,1.391304347826087,29,38.28906821775329,-80.84239806965691,Nicholas County,WV
"Franklin County, FL",793.2402137999999,1,16,1,74,84,130,11,1,11598,3.9736842105263164,4.0,1.6428571428571428,19,29.805819600930864,-84.74807165887862,Franklin County,FL
"St. Clair County, IL",782.1542957,28,183,349,1528,2426,5150,657,70,266955,4.03,4.0,1.5652173913043481,50,38.49836721253521,-89.9778410393377,St. Clair County,IL
"Orleans Parish, LA",782.1184796,193,137,1066,1566,3431,8258,2218,0,378715,4.2,4.0,2.122448979591837,50,29.9511626173363,-90.071107803217,Orleans Parish,LA
"Ector County, TX",781.9089826000003,5,44,163,956,1090,3571,516,26,149378,3.333333333333333,4.0,1.8571428571428568,18,31.843983320435683,-102.46659446158232,Ector County,TX
"Avoyelles Parish, LA",777.2585293,2,31,17,271,378,787,35,3,41299,3.462962962962963,3.5,1.4,27,31.11724196457787,-92.0660299778379,Avoyelles Parish,LA
"Rapides Parish, LA",773.7920330000003,9,43,169,806,1747,4207,249,4,132723,3.99,4.0,1.6170212765957446,50,31.27603059108458,-92.47643563539805,Rapides Parish,LA
"Sumter County, SC",767.644257,12,30,103,685,1611,2713,346,54,108123,3.87,4.0,1.4,50,33.93512195909295,-80.36817733925463,Sumter County,SC
"Comanche County, OK",766.7864603999999,13,42,174,729,1702,3616,330,42,124937,4.02,4.0,1.6382978723404256,50,34.623430161773314,-98.43836187653092,Comanche County,OK
"Mississippi County, AR",763.9897241,8,21,47,266,891,1273,114,6,44765,2.8235294117647056,3.0,1.0833333333333333,17,35.69584371804651,-89.9961469710607,Mississippi County,AR
"Colleton County, SC",762.1467132,2,14,26,246,419,1151,194,14,37788,3.1714285714285717,3.5,1.3333333333333333,35,32.90334694414846,-80.67540888337321,Colleton County,SC
"Modoc County, CA",754.3456871000003,1,12,3,53,58,90,4,5,9147,4.17,4.25,1.5,50,41.6359269263,-120.69846924766242,Modoc County,CA
"Alameda County, CA",753.6935735000003,153,477,6220,5050,13245,35841,13044,337,1578891,4.11,4.0,1.74,50,37.687216437013895,-121.8912517818099,Alameda County,CA
"Sumter County, GA",752.455044,0,4,40,192,741,826,42,0,31364,3.6,4.0,1.351351351351351,50,32.05315758410083,-84.23229503432155,Sumter County,GA
"Darlington County, SC",746.3016117999997,10,17,70,410,1178,2471,217,11,67935,4.05,4.0,1.46875,50,34.346549006163734,-80.0095874726638,Darlington County,SC
"Red River Parish, LA",742.0733078,0,0,2,64,23,116,12,0,8894,3.5,3.5,1.6666666666666667,8,32.07615033425841,-93.37159535747898,Red River Parish,LA
"Lubbock County, TX",740.6920961,12,139,328,1664,3400,9224,828,52,289324,4.21,4.0,1.4042553191489362,50,33.57902700878661,-101.86995615010031,Lubbock County,TX
"Socorro County, NM",739.3084622,0,3,2,124,139,365,23,3,17584,3.733333333333333,4.0,1.181818181818182,30,34.06008475007289,-106.88744671322334,Socorro County,NM
"Duval County, TX",738.8316151,1,0,5,80,105,171,65,5,11640,4.09,4.0,1.3695652173913044,50,27.80378407264757,-98.066433896396,Duval County,TX
"Bernalillo County, NM",738.4818924,50,329,1184,3416,7857,22025,3032,139,674221,4.34,4.5,1.5957446808510638,50,35.08372502751624,-106.64413646330128,Bernalillo County,NM
"Marion County, TX",732.7796776,1,9,5,60,115,144,13,4,10235,3.71875,3.75,1.7,32,32.75209759511288,-94.33150256068632,Marion County,TX
"Lee County, SC",730.3646372999997,0,4,18,112,255,511,66,8,18347,3.6730769230769234,3.75,1.0625,26,34.20148374753941,-80.2642190941977,Lee County,SC
"Shasta County, CA",725.2206951000003,7,97,165,1029,1754,3623,903,35,178980,3.8666666666666663,4.0,1.8888888888888888,15,40.68027041782776,-122.29899220251806,Shasta County,CA
"Laurens County, SC",724.7580365,6,31,49,394,734,1600,119,13,66229,3.28,3.5,1.2702702702702702,50,34.49010646575809,-81.9515490977713,Laurens County,SC
"Hinds County, MS",721.5219335,66,143,846,712,4627,7416,1272,69,244899,3.54,4.0,1.4545454545454546,50,32.328122301562146,-90.32946339508568,Hinds County,MS
"Cibola County, NM",720.6877628999997,1,15,7,174,232,199,51,2,27335,4.15,4.0,1.45,50,35.24670466110448,-108.27006595469366,Cibola County,NM
"Tulsa County, OK",719.1412721,45,381,1122,2928,7291,15582,2702,263,622409,4.29,4.5,1.9166666666666667,50,36.14939767173538,-95.98399722738323,Tulsa County,OK
"Putnam County, FL",717.8582747,5,37,51,428,1029,1952,80,7,72577,3.74,4.0,1.4102564102564104,50,29.645752640016863,-81.65374998203609,Putnam County,FL
"Jefferson County, TX",710.8948399,20,114,554,1106,3147,6454,519,99,252358,4.3,4.5,2.0,5,29.933684382782666,-94.15410027961724,Jefferson County,TX
"Ohio County, WV",706.6572141,0,24,46,240,322,764,56,4,43727,3.67,4.0,1.8409090909090908,50,40.06633370604032,-80.67340347871374,Ohio County,WV
"San Francisco County, CA",701.4217103999997,69,110,3554,2141,5401,29256,5381,211,837442,4.27,4.5,1.9777777777777776,50,37.780003572353955,-122.42779780732526,San Francisco County,CA
"Bamberg County, SC",699.9351912000003,0,2,21,85,231,415,41,2,15430,3.8181818181818175,4.0,1.125,11,33.316066534794146,-81.12771792852693,Bamberg County,SC
"Merced County, CA",696.3544912000001,23,54,331,1425,2686,6047,1358,83,263228,4.21,4.0,1.625,50,37.29261861342725,-120.65325831405846,Merced County,CA
"Harris County, TX",696.1038338,307,1143,12449,16290,43644,114208,20829,1153,4336853,4.3,4.5,1.84,50,29.78444176158633,-95.4201007387537,Harris County,TX
"Jim Wells County, TX",695.7773512,13,17,7,253,467,1089,93,14,41680,3.4,3.5,1.238095238095238,45,27.828198721187768,-98.07654925754306,Jim Wells County,TX
"Oklahoma County, OK",694.8738489,83,398,1137,3630,10118,23238,4163,145,755245,4.32,4.5,1.7555555555555555,50,35.51929189562129,-97.50578710313074,Oklahoma County,OK
"McKinley County, NM",694.3307687999999,7,42,67,393,540,1615,127,18,73308,4.09,4.0,1.5121951219512195,50,35.39115208534274,-108.448733873837,McKinley County,NM
"Mississippi County, MO",693.1802269,2,4,6,87,128,286,13,8,14282,3.85,3.75,1.25,10,36.87492947231079,-89.35618397589168,Mississippi County,MO
"Alpine County, CA",690.2502157,0,3,0,5,18,20,5,0,1159,3.6666666666666665,3.75,1.6666666666666667,6,38.69495698990117,-119.79065825313566,Alpine County,CA
"Calhoun County, GA",689.8666258,0,0,14,31,21,49,7,0,6523,4.8,5.0,1.3333333333333333,5,31.520643265926143,-84.60912506,Calhoun County,GA
"Dyer County, TN",688.2474551,0,9,23,231,387,1084,50,3,38213,3.234042553191489,3.5,1.3235294117647058,47,36.051967121694105,-89.39131063197264,Dyer County,TN
"Clark County, NV",685.1530769999998,94,739,4422,8639,17538,33364,8213,297,2027868,4.19,4.25,1.7291666666666667,50,36.008798753362655,-115.00987984797285,Clark County,NV
"Guadalupe County, NM",681.1689739,0,0,6,25,34,53,8,1,4551,3.5571428571428565,3.5,1.380952380952381,35,34.81625397435536,-104.66553723627844,Guadalupe County,NM
"San Juan County, NM",675.0828044,6,133,57,657,725,2325,189,29,126503,3.97,4.0,1.6304347826086956,50,36.72998331376175,-108.1675116616238,San Juan County,NM
"Fairfield County, SC",675.0616643,4,8,15,129,211,607,68,5,23109,3.794117647058824,4.0,1.0,17,34.36355314744554,-81.08631485851538,Fairfield County,SC
"McDonald County, MO",673.8186009,1,4,4,143,110,266,25,6,22558,3.8333333333333335,4.25,1.375,12,36.61390614377894,-94.40656526241831,McDonald County,MO
"Taylor County, FL",673.754211,3,10,6,135,117,164,15,3,22857,3.4696969696969697,4.0,1.2916666666666667,33,30.02214905761969,-83.55125711757867,Taylor County,FL
"Wayne County, GA",668.2847357999998,8,6,24,163,318,1289,24,0,30077,3.391304347826087,3.5,1.3333333333333333,46,31.60819866226652,-81.88601412096102,Wayne County,GA
"East Baton Rouge Parish, LA",667.0754469,84,77,1297,1512,5806,15182,671,213,445227,4.22,4.5,1.84,50,30.44438398388582,-91.11730391139395,East Baton Rouge Parish,LA
"Leon County, FL",664.1948589,17,137,576,1142,3378,7002,641,25,281845,4.28,4.25,1.673469387755102,50,30.454076704798,-84.2929202559652,Leon County,FL
"Lander County, NV",663.1299735,0,9,0,31,38,55,11,3,6032,3.5535714285714284,3.5,1.4615384615384617,28,40.26878445980857,-116.97024016843555,Lander County,NV
"Orange County, FL",662.6310837,76,450,1977,5616,14034,32034,4013,50,1225267,4.41,4.5,1.5918367346938775,50,28.568148579914666,-81.29165100161953,Orange County,FL
"Leflore County, MS",661.2459265,2,24,46,137,601,906,34,3,31607,3.5444444444444443,4.0,1.5333333333333334,45,33.523967140381984,-90.20200111718245,Leflore County,MS
"Essex County, NJ",659.9836619,121,132,2938,2021,4849,10759,5882,119,789565,4.19,4.0,1.9183673469387756,50,40.806517885010734,-74.21842845888315,Essex County,NJ
"Peach County, GA",658.9175982999999,0,2,19,157,286,688,47,1,27014,3.49,3.5,1.2307692307692308,50,32.562265120405165,-83.7914575763143,Peach County,GA
"Burke County, GA",658.7270427,2,1,11,137,215,397,21,0,22923,2.9130434782608696,3.0,1.3333333333333333,23,33.12804199551284,-82.00481471793054,Burke County,GA
"Hamilton County, TN",658.496643,26,91,560,1619,3405,10133,1216,37,348673,4.14,4.0,1.4222222222222225,50,35.162101825619395,-85.23028149627524,Hamilton County,TN
"Miami-Dade County, FL",656.0124347999998,210,570,6006,10383,21105,82992,9451,226,2617176,4.27,4.5,1.7441860465116281,50,25.54928483690595,-80.44775515861944,Miami-Dade County,FL
"Columbia County, FL",654.3979391,3,20,46,373,812,1317,53,3,67543,3.9,4.0,1.5319148936170213,50,30.17995529258572,-82.66038299246358,Columbia County,FL
"Crockett County, TN",651.0862861,1,11,2,81,81,171,15,0,14591,3.6,4.25,1.25,10,35.769502551395114,-89.09535170783316,Crockett County,TN
"Lenoir County, NC",650.100146,1,18,76,288,796,1468,67,11,58914,3.93,4.0,1.5277777777777777,50,35.26285553755321,-77.59309171656669,Lenoir County,NC
"Hempstead County, AR",649.6395835,2,16,12,116,332,615,51,6,22474,3.28,3.5,1.2222222222222223,25,33.680859432618945,-93.60476188819463,Hempstead County,AR
"Hutchinson County, TX",646.2257665,0,20,5,116,184,489,21,5,21819,3.8,4.0,1.21875,50,35.62050539117865,-101.23139057856064,Hutchinson County,TX
"Richmond city, VA",644.9835135,44,43,640,654,2068,6833,952,54,214114,4.33,4.5,1.7083333333333333,50,37.55377922386257,-77.46449552886978,Richmond city,VA
"Jefferson Davis County, MS",644.4593237,5,2,3,68,206,48,17,0,11948,3.7,5.0,2.0,5,31.57922641692994,-89.82542030001244,Jefferson Davis County,MS
"Conecuh County, AL",644.0599053,1,4,8,70,108,252,42,5,12887,3.3571428571428568,3.5,1.2307692307692308,14,31.45063454361557,-86.96127902238459,Conecuh County,AL
"Morehouse Parish, LA",639.3909155,0,3,34,136,315,842,50,6,27057,4.13,4.0,1.7708333333333333,50,32.5425436680545,-92.0773152003262,Morehouse Parish,LA
"Early County, GA",635.5530259999998,1,3,8,55,105,196,6,0,10542,3.34375,3.5,1.2222222222222223,16,31.377651735207092,-84.9364851958347,Early County,GA
"Henderson County, TN",634.6263548,1,8,10,159,204,544,43,3,28048,3.203703703703704,3.5,1.1176470588235294,27,35.65921476364435,-88.39057439466829,Henderson County,TN
"Richmond County, NY",634.123325,24,66,1143,1764,1053,6586,463,0,472621,4.26,4.5,1.9,50,40.603984274917366,-74.11743797435551,Richmond County,NY
"New York County, NY",634.0093435,81,227,3932,6070,3623,22730,1592,0,1626159,4.29,4.5,2.3095238095238093,50,40.762185252094824,-73.98065026807198,New York County,NY
"Jefferson County, IL",633.9923403,0,20,27,198,326,832,30,16,38644,3.58,3.5,1.4878048780487805,50,38.31280380145591,-88.93523987109863,Jefferson County,IL
"Bronx County, NY",632.0428157,71,197,3420,5279,3165,19721,1385,0,1418733,4.28,4.5,1.818181818181818,50,40.807376175918385,-73.91035823886348,Bronx County,NY
"Queens County, NY",630.3962024,114,317,5522,8522,5088,31814,2235,0,2296175,4.26,4.0,2.0408163265306123,50,40.73594617439936,-73.91993100394747,Queens County,NY
"Kings County, NY",630.2492642000002,129,358,6235,9616,5742,35966,2524,0,2592149,4.25,4.25,2.0444444444444443,50,40.72190931396446,-73.98912466095203,Kings County,NY
"Warren County, GA",629.7229219,0,0,1,34,30,60,5,0,5558,3.1304347826086962,3.5,1.2857142857142858,23,33.48415861662721,-82.47207410225262,Warren County,GA
"Nash County, NC",628.8580653,11,17,100,470,1125,1981,166,12,95093,3.743243243243243,4.0,1.2413793103448276,37,35.96744719265549,-77.95102925170377,Nash County,NC
"Lauderdale County, TN",626.0118726,2,9,16,147,420,472,41,4,27795,3.0,3.0,1.125,12,35.746451317153785,-89.54579546578002,Lauderdale County,TN
"Cocke County, TN",625.7222582,3,4,24,191,483,1033,89,15,35479,3.684782608695652,3.5,1.2941176470588236,46,35.952085915748604,-83.18974591908895,Cocke County,TN
"Bowie County, TX",622.5464503,7,33,88,454,1073,2541,241,27,93487,2.8695652173913038,2.5,1.25,23,33.46865359561696,-94.3874660509892,Bowie County,TX
"Hampton County, SC",622.3049784,0,7,18,102,203,336,27,17,20408,3.625,4.0,1.1666666666666667,20,32.88002973835272,-81.17223672456902,Hampton County,SC
"Hendry County, FL",621.814203,0,15,37,181,595,646,52,8,37471,4.09,4.0,1.4594594594594594,50,26.571057652610122,-81.31118239136266,Hendry County,FL
"Duval County, FL",621.5464156,94,355,1436,3621,8025,27335,1712,96,885855,4.35,4.5,1.7142857142857142,50,30.311093115007008,-81.6804763819634,Duval County,FL
"Durham County, NC",621.2408853,21,70,633,1066,3735,7491,772,61,288133,4.14,4.0,1.6875,50,36.003911778790325,-78.90822977709516,Durham County,NC
"Greene County, MO",620.7066615,17,163,362,1219,2863,13016,1238,86,283870,4.32,4.5,1.6530612244897958,50,37.20678008075609,-93.29220254754178,Greene County,MO
"Jefferson County, FL",619.9802734,0,3,6,79,103,64,9,2,14194,4.21,4.0,1.6041666666666667,50,30.47847660924917,-84.16509994914361,Jefferson County,FL
"Escambia County, AL",618.6978385,3,7,18,207,299,793,62,14,37983,3.5,4.0,1.3333333333333333,16,31.127612129222175,-87.06990664922121,Escambia County,AL
"Horry County, SC",617.6419817000002,21,201,416,1151,3158,10088,1073,57,289650,3.8243243243243237,4.0,1.368421052631579,37,33.84911711408754,-79.03008028346126,Horry County,SC
"Nueces County, TX",616.5739392,18,194,392,1567,2723,11976,491,41,352107,4.14,4.0,1.6304347826086956,50,27.77658424396369,-97.4057205325703,Nueces County,TX
"Sedgwick County, KS",615.5337693,24,273,513,2301,4575,17136,1967,160,505415,4.06,4.0,1.6222222222222222,50,37.701423622192685,-97.43623639143074,Sedgwick County,KS
"Edgecombe County, NC",615.3956886,3,14,61,264,735,1301,83,13,55574,3.4615384615384617,4.0,1.4210526315789471,26,35.89540066140632,-77.58817274146614,Edgecombe County,NC
"Montgomery County, KS",615.303861,1,17,17,176,303,858,48,20,34292,3.41025641025641,3.5,1.3888888888888888,39,35.43641756340645,-93.52297698054736,Montgomery County,KS
"Caddo Parish, LA",614.7822368,17,98,436,1016,2642,7558,479,79,254887,4.0,4.0,1.826086956521739,50,32.53260027049984,-93.72940817887674,Caddo Parish,LA
"Graham County, AZ",613.6278747,1,0,0,229,119,251,21,7,37482,3.57,3.5,1.380952380952381,50,32.84899132028831,-109.69181146310598,Graham County,AZ
"Madera County, CA",612.9051308999999,2,35,139,758,1654,1715,648,11,152389,4.0,4.0,1.7586206896551724,43,37.296092448565695,-119.7148834117403,Madera County,CA
"Sebastian County, AR",612.5237549,6,77,97,600,1261,3804,199,12,127342,3.5,4.0,1.2,14,35.143803786989274,-93.40182659375066,Sebastian County,AR
"Emanuel County, GA",612.2359732000001,2,6,14,118,253,799,59,2,22867,3.5192307692307687,3.5,1.1052631578947372,26,32.590212526622985,-82.32926967624427,Emanuel County,GA
"Camden County, NJ",610.3101467,71,117,1182,1760,3986,11325,1388,173,512854,4.15,4.0,1.8979591836734693,50,39.839044684249494,-74.96299167072411,Camden County,NJ
"Nye County, NV",609.9723385,0,11,26,221,334,687,126,10,42297,3.9852941176470584,4.0,1.3478260869565215,34,37.64375768703234,-117.07952748027573,Nye County,NV
"Greenlee County, AZ",607.8019671,1,3,1,50,37,88,4,0,9049,3.4,3.5,1.5,10,33.04964865249304,-109.31362393358481,Greenlee County,AZ
"Alachua County, FL",605.2451953,10,138,253,1133,1917,6331,357,25,253451,4.24,4.25,1.5714285714285714,50,29.65530444708393,-82.34406544703677,Alachua County,FL
"Union County, AR",604.5117216,1,4,36,205,522,802,62,7,40694,3.9,4.0,2.0,5,33.197619496677426,-92.60937543830772,Union County,AR
"Peoria County, IL",603.941007,14,53,347,723,1809,4545,290,61,188429,4.04,4.0,1.6875,50,40.73911044311319,-89.6263783291731,Peoria County,IL
"Madison County, AL",603.3578173999998,18,107,523,1445,3217,8556,919,33,346892,4.08,4.0,1.72,50,34.71831184631709,-86.58252732071286,Madison County,AL
"Calhoun County, MI",602.1686961,11,83,112,606,1405,2782,170,41,135012,3.57,3.5,1.4210526315789471,50,42.28533360936511,-85.00524701210017,Calhoun County,MI
"Williamsburg County, SC",601.8084495,4,11,39,145,440,785,116,17,33067,3.388888888888889,3.5,1.2857142857142858,9,33.67212150053111,-79.82758870595238,Williamsburg County,SC
"Roberts County, TX",601.6847172,0,1,0,4,1,13,3,0,831,3.7236842105263164,4.0,1.173913043478261,38,35.54705736003653,-100.94453785045195,Roberts County,TX
"Bradley County, TN",600.895452,1,38,54,519,681,2409,160,7,101848,4.11,4.0,1.5,50,35.178734835556945,-84.86913445142858,Bradley County,TN
"Anderson County, SC",600.0807801,18,55,157,914,2438,6372,835,36,190641,4.27,4.5,1.5416666666666667,50,34.521826786099446,-82.65901451227465,Anderson County,SC
"Denver County, CO",599.0808243,39,383,1170,2299,5152,14857,3688,98,649495,4.36,4.5,1.8333333333333333,50,39.732447849549295,-104.9583190260648,Denver County,CO
"Chester County, SC",598.5634477000001,2,12,25,156,389,867,60,2,32578,3.5769230769230766,4.0,1.1538461538461535,26,34.706481989933444,-81.19510752535453,Chester County,SC
"Lowndes County, AL",597.9631879,1,3,8,51,117,127,25,7,10703,4.28,4.5,1.6956521739130437,50,32.36191369666388,-86.33088744697937,Lowndes County,AL
"Willacy County, TX",597.6004743999998,0,14,4,113,226,463,16,7,21921,4.09,4.0,1.48,50,26.20545627237403,-97.72168730207602,Willacy County,TX
"Cook County, IL",596.6569350999998,566,463,15583,14657,34233,115634,20245,892,5240700,4.24,4.25,1.9795918367346936,50,41.822861622849686,-87.90356456850051,Cook County,IL
"Clark County, IN",593.2458517000001,3,16,73,579,954,3388,263,4,112938,4.08,4.0,1.4545454545454546,50,38.36543140924152,-85.71370665834304,Clark County,IN
"DeKalb County, GA",592.9851123,80,163,2140,1847,10669,21449,5575,184,713340,4.17,4.0,1.625,50,33.80151719660848,-84.25335239707009,DeKalb County,GA
"Potter County, TX",592.6303417,5,60,154,502,1218,3529,363,30,121661,4.23,4.0,1.7142857142857142,50,35.189386277064784,-101.87828521756495,Potter County,TX
"Arkansas County, AR",591.1487457999998,0,4,24,83,339,429,34,7,18777,4.0,4.0,1.3333333333333333,10,34.284371751955206,-91.33537459088085,Arkansas County,AR
"Chicot County, AR",591.0895457,0,4,8,56,83,171,2,2,11335,3.65625,3.75,1.625,16,33.305616158993416,-91.23309031405745,Chicot County,AR
"Cochise County, AZ",590.856781,4,40,52,669,713,2662,197,32,129473,4.23,4.25,1.6666666666666667,50,31.662702974398083,-110.06172905327908,Cochise County,AZ
"Wyandotte County, KS",590.457901,16,90,286,554,1834,5085,1256,80,160384,4.28,4.5,1.5416666666666667,50,39.070973493211845,-94.70846865449744,Wyandotte County,KS
"Turner County, GA",590.1155643,0,6,4,38,46,161,19,3,8134,3.0,3.0,1.25,18,31.704370401981837,-83.64688222121761,Turner County,GA
"Lake County, CA",588.7879737000002,3,33,60,280,766,958,201,25,63860,3.861111111111111,4.0,1.5,18,39.04834922770931,-122.664539081455,Lake County,CA
"Luna County, NM",588.0206009999997,0,9,6,130,243,583,28,4,24659,3.76530612244898,4.0,1.2972972972972974,49,32.266324531271195,-107.75161433042871,Luna County,NM
"Manatee County, FL",585.7833537,26,141,388,1449,2720,7699,404,14,342106,4.03,4.0,1.8723404255319152,50,27.401734856518672,-82.4542700118952,Manatee County,FL
"Hampden County, MA",583.3274487000001,11,151,788,1776,4570,9836,1231,115,467319,4.19,4.0,1.673469387755102,50,42.1375909928263,-72.59632105959591,Hampden County,MA
"Haralson County, GA",582.5583436000003,1,6,4,155,310,442,90,1,28495,3.57,3.5,1.2857142857142858,50,33.714992485207844,-85.1964195116715,Haralson County,GA
"New Castle County, DE",581.7888096,46,130,1167,1855,4310,12637,1015,22,549684,4.07,4.0,1.7272727272727273,50,39.62115898281415,-75.63965406933727,New Castle County,DE
"Calhoun County, AL",580.7976974,6,37,131,504,1710,3482,147,34,116736,3.99,4.0,1.4615384615384617,50,33.75436326833458,-85.8106219840393,Calhoun County,AL
"Jackson County, IL",580.1317417,1,29,53,264,488,1683,73,20,59814,3.534482758620689,4.0,1.2857142857142858,29,37.768548170241104,-89.34409848474817,Jackson County,IL
"St. James Parish, LA",579.2570797999998,1,6,9,110,128,401,16,0,21752,3.6739130434782608,4.0,1.5833333333333333,23,30.03730133404708,-90.74975227346144,St. James Parish,LA
"Sullivan County, TN",578.5625339,3,56,70,777,1077,4129,299,37,156595,4.18,4.5,1.475,50,36.55833526783419,-82.23128163635573,Sullivan County,TN
"Greenville County, SC",577.3131534,20,189,451,2078,4000,11148,1254,67,474266,4.25,4.25,1.836734693877551,50,34.849849644900516,-82.40244975551383,Greenville County,SC
"Concordia Parish, LA",577.2429312,2,4,5,107,142,304,18,0,20442,4.18,4.0,1.8292682926829267,50,31.432182412679282,-91.43379364637795,Concordia Parish,LA
"Jefferson County, KY",576.7462264,78,266,1557,2465,8103,21941,2430,250,756832,4.38,4.5,1.8979591836734693,50,38.23754794033316,-85.70567715569331,Jefferson County,KY
"Kern County, CA",575.8432818,65,174,1313,3424,10931,17584,6246,589,864124,4.35,4.5,1.6,50,35.360906105131825,-118.99602698719765,Kern County,CA
"Clayton County, GA",575.2781772999998,28,71,693,728,4477,7068,1636,34,264220,4.07,4.0,1.5652173913043481,50,33.52223859720981,-84.35579863086231,Clayton County,GA
"Plumas County, CA",572.6708732999998,0,15,1,92,143,271,23,0,18859,4.28125,4.5,1.2857142857142858,16,39.999290778221436,-120.89049934966263,Plumas County,CA
"Emporia city, VA",572.6556908,0,3,5,24,71,213,15,2,5588,3.0357142857142856,3.0,1.3478260869565215,28,36.69804929846981,-77.54661443983228,Emporia city,VA
"Kershaw County, SC",571.0538102,2,30,26,299,663,1333,124,4,62516,3.488888888888889,3.5,1.2758620689655171,45,34.246044798476376,-80.6235457800088,Kershaw County,SC
"Mecosta County, MI",570.6597383,0,20,0,226,181,691,27,4,43108,3.84375,4.0,1.75,16,43.605163453745966,-85.30760328715431,Mecosta County,MI
"Natchitoches Parish, LA",569.7787317000002,4,7,24,188,518,1223,50,4,39138,3.55,3.5,1.7179487179487178,50,31.74979689487433,-93.09084213329069,Natchitoches Parish,LA
"Eddy County, NM",569.6670332,7,26,19,263,628,1596,133,7,55471,3.52,3.5,1.380952380952381,50,31.140218370815788,-99.31653290716605,Eddy County,NM
"Union County, SC",567.2493757,2,9,20,128,270,776,31,8,28030,3.3529411764705883,3.75,1.1904761904761905,34,34.71898252594314,-81.64316801436897,Union County,SC
"West Carroll Parish, LA",566.9428696,0,0,0,65,49,285,10,3,11465,4.0,4.5,1.25,6,32.860742708813,-91.38935024266571,West Carroll Parish,LA
"Vermilion County, IL",565.1757149,4,63,88,299,955,1979,124,27,80329,3.83,4.0,1.5897435897435896,50,40.07013555670513,-87.48029419181844,Vermilion County,IL
"Rio Arriba County, NM",563.9848272999999,1,5,38,182,401,396,39,3,40072,4.19,4.0,1.5227272727272727,50,36.103641015292354,-106.25177439220978,Rio Arriba County,NM
"Cumberland County, NC",562.7993899,30,95,728,980,6378,11924,999,104,325871,3.93,4.0,1.627906976744186,50,35.06187705781886,-78.88028904717136,Cumberland County,NC
"Hardeman County, TN",562.6092907000002,4,3,11,130,225,376,54,8,26306,3.8461538461538463,4.0,1.4285714285714286,13,35.25662010418914,-88.99317325951874,Hardeman County,TN
"Independence County, AR",562.2077466,0,22,16,170,601,830,121,25,36997,3.391304347826087,3.5,1.4242424242424243,46,35.762097177885146,-91.62733637411966,Independence County,AR
"St. Mary Parish, LA",562.1649888999998,1,19,41,240,412,1329,73,3,53543,4.31,4.5,1.6511627906976745,50,29.942569591031514,-91.5973809522303,St. Mary Parish,LA
"Chambers County, AL",562.0279843,1,7,24,160,374,875,96,5,34162,4.9,5.0,1.0,5,32.89611052948146,-85.41225500657916,Chambers County,AL
"Tehama County, CA",561.3968313999999,3,17,36,298,451,896,160,5,63057,3.98,4.0,1.6382978723404256,50,40.18251569142601,-122.22699006530048,Tehama County,CA
"Brooks County, GA",560.7115236000002,0,12,10,65,117,328,34,0,15516,4.181818181818182,4.5,1.2222222222222223,11,30.799396491213866,-83.55308172754945,Brooks County,GA
"Champaign County, IL",560.2815072999998,4,129,226,789,1571,4040,166,47,204897,4.11,4.0,1.62,50,40.113734960646,-88.23197493992184,Champaign County,IL
"Glynn County, GA",559.4542867,6,13,125,312,957,2814,112,8,81508,4.16,4.25,1.5333333333333334,50,31.19738842495738,-81.49694230314839,Glynn County,GA
"Petersburg city, VA",559.3459955,5,7,59,111,395,939,107,7,32538,4.1,4.0,1.702127659574468,50,37.21597986201011,-77.39680940140224,Petersburg city,VA
"Norfolk city, VA",558.2211677,34,88,502,750,2327,8972,759,62,246139,4.29,4.5,1.75,50,36.87151198453881,-76.2725763126043,Norfolk city,VA
"Henderson County, IL",557.9399142000002,0,1,1,37,69,103,0,1,6990,4.0,4.0,1.56,36,40.81827545197624,-91.09119638748413,Henderson County,IL
"Sierra County, CA",557.9258287,0,0,0,17,16,37,2,1,3047,4.55,5.0,1.75,10,39.475117389120605,-120.73259480721599,Sierra County,CA
"East Carroll Parish, LA",557.8430070000002,3,0,3,36,57,68,0,0,7529,4.333333333333333,4.5,1.5,6,32.788372044913885,-91.18760303916542,East Carroll Parish,LA
"Claiborne County, TN",557.6679341,1,4,13,158,369,425,51,9,31560,3.5869565217391304,3.5,1.4,23,36.45732690049201,-83.58603696496179,Claiborne County,TN
"Mecklenburg County, NC",556.9251355,54,240,1886,3339,8340,25995,2295,233,990977,4.29,4.5,1.62,50,35.232213773812525,-80.82243363617519,Mecklenburg County,NC
"Del Norte County, CA",556.0937107999998,1,22,24,108,288,283,116,6,27873,4.34,4.5,1.7027027027027026,50,41.790966893144045,-124.15493111054968,Del Norte County,CA
"Prince George's County, MD",555.679764,63,173,2450,2260,6050,20025,5092,159,890081,4.19,4.0,1.9166666666666667,50,38.874097616664436,-76.9686265353955,Prince George's County,MD
"Lafayette Parish, LA",554.9178019999998,17,37,267,960,2110,6959,396,46,230845,4.3,4.5,1.64,50,30.201949491919,-92.03432888979252,Lafayette Parish,LA
"Butler County, MO",554.7431702,1,18,35,185,446,1524,79,10,43083,3.75,4.0,1.4358974358974361,50,36.76547693252596,-90.41409957674766,Butler County,MO
"Sumter County, AL",553.8507597,1,2,4,67,99,194,15,0,13361,3.3928571428571432,3.5,1.3,14,32.61440928249189,-88.1810856648563,Sumter County,AL
"Maury County, TN",552.7632192000002,5,28,45,385,518,1640,80,11,83761,4.1,4.25,1.4761904761904765,50,35.610440009057605,-87.04593257458176,Maury County,TN
"Mobile County, AL",552.3100664,46,87,661,1493,4458,12315,1034,92,414079,4.28,4.5,1.76,50,30.676227411867853,-88.16340104376108,Mobile County,AL
"St. Landry Parish, LA",551.2018597,7,28,69,356,823,1641,84,3,83454,3.72,4.0,1.4166666666666667,50,30.532987990730707,-92.0747326137582,St. Landry Parish,LA
"Cumberland County, NJ",551.0639921000002,7,32,316,512,2033,4567,164,33,157332,3.89,4.0,1.5,50,39.41558805294441,-75.0765068761954,Cumberland County,NJ
"Tift County, GA",551.0599216,5,18,45,154,369,1514,68,16,40286,3.8,4.0,1.5,50,31.455979431647183,-83.51970870987435,Tift County,GA
"Pinellas County, FL",550.6712247,44,361,1206,3505,7392,24499,1755,167,929048,4.43,4.5,1.6122448979591837,50,27.896201109742808,-82.73650763142696,Pinellas County,FL
"Roanoke city, VA",550.4493982999999,9,39,141,353,939,3602,248,43,98465,4.2,4.0,1.7083333333333333,50,37.27407508593214,-79.95239490938536,Roanoke city,VA
"Clarendon County, SC",550.1382623,1,10,31,147,352,904,82,11,34355,3.2564102564102564,3.5,1.1111111111111112,39,33.691681652123435,-80.22570014810654,Clarendon County,SC
"Chaves County, NM",549.9597405000002,8,37,48,269,756,2141,110,14,65823,3.9,4.0,1.3783783783783785,50,33.38444225642362,-104.52235939776234,Chaves County,NM
"Quitman County, GA",549.2184199,0,0,0,13,18,24,2,0,2367,4.5,4.5,1.6,8,31.8456937753754,-84.92960247856367,Quitman County,GA
"Wicomico County, MD",549.080241,5,30,148,371,764,2494,109,33,100896,4.0,4.0,1.8163265306122451,50,38.37164097918465,-75.5938585988318,Wicomico County,MD
"Sacramento County, CA",547.6937429,79,383,2560,4986,11383,28679,8416,244,1462131,4.14,4.0,1.6122448979591837,50,38.41363324498712,-121.41319687990227,Sacramento County,CA
"Andrews County, TX",547.6516459,1,20,0,71,78,258,18,0,16799,3.0384615384615383,3.0,1.2424242424242424,39,32.316701410837915,-102.53690220177023,Andrews County,TX
"Stanislaus County, CA",547.1073719999998,38,129,788,1920,5551,12425,4085,117,525491,4.18,4.0,1.6,50,37.634530585795055,-120.97620522416432,Stanislaus County,CA
"Spalding County, GA",546.7734102000002,3,24,82,240,797,2288,160,3,63829,3.92,4.0,1.4418604651162792,50,33.260526065933625,-84.2802563546146,Spalding County,GA
"Victoria County, TX",543.1643489,6,48,50,385,761,2218,130,19,90028,4.01,4.0,1.6,50,28.82101022036045,-96.9943352212881,Victoria County,TX
"St. Francis County, AR",542.9200293,4,7,45,92,465,1081,34,9,27260,3.216666666666667,3.5,1.1176470588235294,30,35.02710129017771,-90.79112070665293,St. Francis County,AR
"Wirt County, WV",542.2809693,0,1,0,31,42,57,11,2,5901,4.03,4.0,1.5952380952380951,50,39.236552257103966,-81.55086000181637,Wirt County,WV
"Halifax County, NC",540.6618899,7,28,55,199,732,1226,81,13,53453,4.06,4.0,1.5227272727272727,50,36.18953285077239,-77.73584197566134,Halifax County,NC
"Jeff Davis County, GA",539.8560384,1,0,3,77,115,346,10,2,15004,3.0588235294117645,3.5,1.4166666666666667,17,31.86683953128476,-82.5997948034488,Jeff Davis County,GA
"Cecil County, MD",538.6947691,2,38,119,390,870,2362,138,45,101913,3.89,4.0,1.826086956521739,50,39.57235785021381,-76.04284593371005,Cecil County,MD
"Brevard County, FL",537.9223453,30,199,505,2229,3945,11867,847,64,550823,4.29,4.5,1.7755102040816326,50,28.32463267053491,-80.67901842636388,Brevard County,FL
"Butler County, AL",537.8731803999998,6,5,11,87,182,408,30,3,20265,3.4166666666666665,3.5,1.4,6,31.804509006306702,-86.66109248316593,Butler County,AL
"Montgomery County, TN",536.6094754,12,60,104,812,1171,3265,230,29,184119,4.2,4.0,1.4772727272727273,50,36.52949027786296,-87.33900088709841,Montgomery County,TN
"Beaufort County, SC",536.5518686,12,48,146,716,1299,3522,219,26,171838,4.17,4.0,1.8888888888888888,50,32.41549658518329,-80.69002990222666,Beaufort County,SC
"Forsyth County, NC",535.9614638999999,8,99,469,1360,5413,11233,831,112,361220,4.07,4.0,1.84,50,36.097181353030564,-80.26618459706997,Forsyth County,NC
"Fresno County, CA",534.2980847,76,170,1410,3448,10493,24451,6909,415,955272,4.28,4.5,1.38,50,36.79821425883749,-119.70785215590692,Fresno County,CA
"Kent County, DE",534.1880342000002,4,47,161,693,1230,4743,213,196,169416,3.98,4.0,1.6170212765957446,50,39.133806737050186,-75.52651217309304,Kent County,DE
"Howard County, TX",533.9308933,3,20,12,158,303,908,54,7,36147,3.74,4.0,1.5116279069767442,50,32.24786809544391,-101.47301370441795,Howard County,TX
"Putnam County, GA",533.4331571,0,7,13,94,173,324,11,1,21371,3.5,4.0,1.368421052631579,25,33.357888192537324,-83.32802146236375,Putnam County,GA
"Morgan County, MO",532.9385639999998,3,0,1,104,154,248,25,0,20265,4.131578947368421,4.0,1.1111111111111112,19,38.41669302234635,-92.84313993702641,Morgan County,MO
"Anson County, NC",531.3252552,1,15,30,93,508,769,38,3,26161,3.217391304347826,3.0,1.25,23,34.96685545155645,-80.06741348609462,Anson County,NC
"Allen County, OH",530.8742806,8,73,120,358,1042,2646,132,25,105298,3.76,4.0,1.6666666666666667,50,40.74733110378431,-84.12712248699465,Allen County,OH
"Clinch County, GA",529.8013245,2,0,8,26,75,171,2,1,6795,3.82,4.0,1.368421052631579,50,31.14999924794311,-82.46039416186355,Clinch County,GA
"Wilkes County, GA",529.4705295,1,1,1,50,50,126,5,0,10010,3.807692307692308,4.0,1.375,13,33.736318074354145,-82.73573456948465,Wilkes County,GA
"Muskegon County, MI",529.2150075000002,4,119,192,590,1800,5164,305,61,171008,3.99,4.0,1.4444444444444444,50,43.24391500894614,-86.23097456601641,Muskegon County,MI
"Lincoln County, WV",528.7814834,2,5,9,98,226,525,56,4,21559,4.17,4.0,1.7551020408163265,50,38.40524635379673,-82.12865453144441,Lincoln County,WV
"Gadsden County, FL",528.2071265,5,12,25,202,444,659,42,5,46194,3.54,4.0,1.2142857142857142,25,30.593488484685434,-84.61774747048041,Gadsden County,FL
"Bullock County, AL",526.3652599,0,2,12,43,98,55,3,23,10639,4.0625,4.25,1.5,8,32.14239329698337,-85.71890734470115,Bullock County,AL
"Dauphin County, PA",525.2143487,18,154,527,724,1533,5404,288,56,270937,3.96,4.0,1.7826086956521738,50,40.32184896050822,-76.77831504382813,Dauphin County,PA
"Hill County, MT",525.1086432,0,17,1,69,40,519,36,11,16568,3.641025641025641,3.5,1.5769230769230769,39,48.53276543660405,-109.73243369005534,Hill County,MT
"Bibb County, GA",524.1693111999998,24,56,292,439,2395,6307,683,211,154721,4.21,4.0,1.5106382978723405,50,32.839296574769946,-83.66362873936481,Bibb County,GA
"Knox County, TN",522.4662747,25,150,612,1536,4205,12733,1372,46,444622,4.32,4.5,1.84,50,35.967437043903125,-83.93941029272008,Knox County,TN
"Vance County, NC",522.2281735,11,8,97,118,1029,1800,167,12,44808,3.29,3.0,1.351351351351351,50,36.33284785076327,-78.41632563671577,Vance County,NC
"Bryan County, OK",522.1046922,1,17,9,204,366,865,76,2,44244,4.34,4.5,1.5555555555555556,50,33.81224313180072,-96.44646861943829,Bryan County,OK
"Cuyahoga County, OH",521.2349405,99,489,3719,2277,12781,21517,4681,367,1263154,4.27,4.0,1.9347826086956519,50,41.48324459810016,-81.69510464557185,Cuyahoga County,OH
"Taney County, MO",520.7652823,0,10,26,243,351,1564,102,3,53575,3.977272727272727,4.25,1.3571428571428572,22,36.68199611134522,-93.14135090839851,Taney County,MO
"Martin County, NC",519.0092409,3,4,32,84,425,619,40,6,23699,3.4,3.5,1.2777777777777777,25,35.839393662623635,-77.06463273345813,Martin County,NC
"McMinn County, TN",517.7585449,0,18,37,216,483,1426,136,13,52341,3.77,4.0,1.4772727272727273,50,35.452073770734096,-84.61661974471086,McMinn County,TN
"Dallas County, AR",516.8284382,2,5,7,27,80,144,5,1,7933,3.548387096774193,3.5,1.0588235294117647,31,34.099837551843194,-92.51871161717935,Dallas County,AR
"Delaware County, PA",516.0390268,30,89,849,1932,2309,9745,602,59,561973,4.12,4.0,1.6875,50,39.921960422075074,-75.3835193359689,Delaware County,PA
"Ward County, TX",515.8306652,2,5,2,49,70,226,7,0,11244,3.82,3.75,1.6,50,31.355714048211237,-103.14243030645466,Ward County,TX
"Gibson County, TN",515.5994096,0,7,21,227,367,812,49,9,49457,3.875,4.25,1.181818181818182,16,35.99066448213857,-88.95052699149163,Gibson County,TN
"Bristol County, MA",515.394913,6,186,692,1965,3653,8599,876,105,552780,4.1,4.0,1.425531914893617,50,41.75208045357892,-71.14582894433582,Bristol County,MA
"Oconee County, SC",514.3580518,5,32,17,332,662,1456,157,13,75045,3.98,4.0,1.3823529411764706,50,34.73326908671215,-83.03395483102432,Oconee County,SC
"Etowah County, AL",513.8024266,2,45,126,361,1241,2674,294,42,103931,3.99,4.0,1.568181818181818,50,33.99753917787566,-86.02447848287397,Etowah County,AL
"Pontotoc County, OK",513.2659507000002,3,25,11,156,292,740,77,0,37992,3.29,3.5,1.368421052631579,50,34.83773334752894,-97.18087368844287,Pontotoc County,OK
"Monroe County, FL",512.1085513,3,33,66,289,638,2549,144,6,76351,4.33,4.5,1.9791666666666667,50,24.572758524019328,-81.72823531274469,Monroe County,FL
"Gonzales County, TX",512.0126034,2,15,4,83,166,351,25,1,20312,3.7,3.5,1.1666666666666667,30,29.508039828214873,-97.45153003910109,Gonzales County,TX
"Abbeville County, SC",511.8566801,0,5,12,111,216,496,25,13,25007,3.5535714285714284,4.0,1.1428571428571428,28,34.16100890846505,-82.36845934226093,Abbeville County,SC
"Galax city, VA",511.7270789,0,10,1,25,17,289,6,0,7035,3.635135135135135,4.0,1.24,37,36.67679782301483,-80.91380921474996,Galax city,VA
"Dorchester County, MD",508.2669933,1,15,36,114,296,784,49,11,32660,4.08,4.0,1.8863636363636365,50,38.49279409770008,-76.02769406178625,Dorchester County,MD
"Lawrence County, PA",508.2108515,4,14,93,343,635,1401,73,13,89333,3.98,4.0,1.380952380952381,50,40.99712961897351,-80.33645914938919,Lawrence County,PA
"Ben Hill County, GA",508.1358835,0,23,12,54,180,303,24,3,17515,3.6428571428571432,4.0,1.3076923076923077,21,31.70562687623313,-83.24966539392256,Ben Hill County,GA
"Kings County, CA",508.081611,4,55,106,602,813,2222,405,34,150960,4.15,4.0,1.3877551020408163,50,36.29646917162785,-119.69685480241074,Kings County,CA
"Baltimore County, MD",508.01018210000007,24,147,1368,2642,4083,18013,1572,257,823015,4.3,4.5,2.0212765957446805,50,39.292859532808585,-76.60446469896425,Baltimore County,MD
"Des Moines County, IA",506.4229249,3,5,20,177,339,1060,62,14,40480,3.99,4.0,1.631578947368421,50,40.81385535229607,-91.12843795690401,Des Moines County,IA
"Okeechobee County, FL",505.9750826,0,19,30,150,550,786,51,0,39330,3.5263157894736836,3.5,1.3793103448275863,38,27.224447769654468,-80.82137201450827,Okeechobee County,FL
"Lancaster County, SC",504.61110139999994,13,26,68,299,884,2146,115,22,80458,3.5795454545454546,3.5,1.2727272727272727,44,34.733886535986514,-80.74117540996009,Lancaster County,SC
"Lee County, IA",504.45602829999996,0,9,5,166,254,678,78,15,35682,3.657894736842105,3.5,1.3448275862068966,38,40.600005450868395,-91.35650791309799,Lee County,IA
"Calcasieu Parish, LA",504.3626086,12,118,241,614,3762,4802,231,16,195296,4.02,4.0,1.7142857142857142,50,30.218961202247066,-93.27415051273859,Calcasieu Parish,LA
"Randall County, TX",503.66083150000003,6,56,126,449,1094,3091,313,29,126474,3.7625,4.0,1.3571428571428572,40,34.986666314167984,-101.91862544534165,Randall County,TX
"St. Charles Parish, LA",503.6395081,2,8,32,223,409,1118,78,18,52617,4.02,4.0,1.6304347826086956,50,29.958668211666726,-90.32957512698931,St. Charles Parish,LA
"Baldwin County, GA",501.7485176,2,18,15,196,359,1044,40,3,46039,3.85,4.0,1.4358974358974361,50,33.098616476492,-83.24303178624862,Baldwin County,GA
"Pueblo County, CO",501.7002063,8,22,199,581,1962,4931,518,43,161451,2.125,1.5,1.1666666666666667,8,38.222094099376115,-104.63271291314013,Pueblo County,CO
"Cherokee County, TX",501.1989465,2,33,25,195,436,903,102,8,50878,3.933333333333333,4.0,1.25,15,31.80157682245957,-95.1511050150617,Cherokee County,TX
"McNairy County, TN",501.1476664,0,4,5,122,153,378,42,2,26140,3.8333333333333335,4.0,1.1428571428571428,18,35.16351823727772,-88.58530292082013,McNairy County,TN
"Lea County, NM",501.0137816000001,4,28,28,280,729,1600,184,6,68062,3.91,4.0,1.6458333333333333,50,32.68522878893151,-103.44929001303257,Lea County,NM
"Franklin County, AL",497.9068882,0,10,13,134,216,494,35,2,31532,4.2,5.0,1.0,10,34.47129244607282,-87.73893318755276,Franklin County,AL
"Geary County, KS",497.53905410000004,1,12,13,160,166,510,32,7,37384,3.49,3.5,1.5641025641025639,50,39.03996201176738,-96.81299638362887,Geary County,KS
"Tallapoosa County, AL",497.5365871,3,6,17,179,296,809,52,4,41203,3.6875,4.0,1.5,16,32.780807407045224,-85.78913395537606,Tallapoosa County,AL
"DeWitt County, TX",497.48817249999996,0,10,5,87,124,290,21,1,20503,3.58,3.5,1.263157894736842,25,29.096548440642252,-97.28909180960623,DeWitt County,TX
"Bay County, FL",497.1797905,9,70,168,623,1558,5538,295,20,174987,4.23,4.0,1.6666666666666667,50,30.176922512874512,-85.71151132793527,Bay County,FL
"Scotland County, NC",496.87716860000006,7,5,33,134,761,803,47,26,36025,3.027027027027027,3.0,1.1935483870967742,37,34.76067164117982,-79.48120397810784,Scotland County,NC
"St. Helena Parish, LA",496.55172410000006,0,1,2,51,87,140,20,0,10875,4.22,4.0,1.7234042553191489,50,30.573250250636807,-90.64190216699622,St. Helena Parish,LA
"Washington Parish, LA",495.4867619,6,22,36,166,552,1075,76,2,46419,3.625,3.75,1.2857142857142858,16,30.856585852975577,-90.12505351060673,Washington Parish,LA
"Calhoun County, TX",495.27652939999996,0,15,3,90,191,359,29,5,21806,3.8333333333333335,4.0,1.75,6,28.41412244257161,-96.70881316215662,Calhoun County,TX
"Johnson County, TN",495.0770429,2,5,2,80,96,169,38,2,17977,3.739130434782609,4.0,1.2857142857142858,23,36.44656195206319,-81.81282423965607,Johnson County,TN
"Valencia County, NM",492.8949714,4,15,18,338,822,931,204,9,76284,3.4047619047619047,3.75,1.3103448275862069,42,34.703907923191124,-106.75809668300155,Valencia County,NM
"Gregg County, TX",492.58681229999996,7,72,145,382,1241,3834,395,19,123024,4.06,4.0,1.5869565217391304,50,32.51769145761486,-94.75313032365216,Gregg County,TX
"Kleberg County, TX",492.1965048,1,5,18,134,370,960,20,4,32101,4.26,4.5,1.574468085106383,50,27.688545066105515,-97.39577366563677,Kleberg County,TX
"Sheridan County, MT",490.73064339999996,0,3,0,15,7,54,6,0,3668,3.25,3.75,1.8,8,48.775166290354655,-104.56330407066088,Sheridan County,MT
"Muscogee County, GA",490.5731077,17,31,424,523,2712,7767,846,28,202824,4.16,4.0,1.75,50,32.49439629802281,-84.96331589628906,Muscogee County,GA
"Nantucket County, MA",490.43177230000003,0,3,2,46,51,301,13,1,10399,3.91,4.0,2.3673469387755097,50,41.28153547975314,-70.09971746887085,Nantucket County,MA
"Decatur County, TN",488.80885,0,1,3,53,97,162,25,1,11661,4.029411764705882,4.0,1.4285714285714286,17,35.635195956634824,-88.09519790536366,Decatur County,TN
"Osceola County, FL",488.4356659,8,75,209,1166,2801,5962,367,7,298504,4.34,4.5,1.8,50,28.278726755290194,-79.29051710888605,Osceola County,FL
"York County, SC",488.3795741,10,70,167,922,1090,4480,327,31,239363,3.65,3.5,1.4324324324324325,50,34.98493797972274,-81.14961868331133,York County,SC
"Shawnee County, KS",488.1703955,19,46,244,564,1585,5706,662,68,178831,4.08,4.0,1.5777777777777775,50,39.03645165639879,-95.72683970851172,Shawnee County,KS
"Pennington County, SD",486.94698420000003,5,143,55,312,716,3149,258,21,105761,3.3653846153846154,3.5,1.55,26,44.09532900524001,-103.11771680254377,Pennington County,SD
"Ingham County, MI",485.41281349999997,13,162,237,958,1971,4891,428,112,282234,3.78,3.75,1.6363636363636365,50,42.6577485874311,-84.39940024767037,Ingham County,MI
"Cloud County, KS",484.28755920000003,0,9,0,36,88,202,10,7,9292,3.45,3.5,1.375,20,39.57260707812265,-97.6513602916918,Cloud County,KS
"Bradford County, FL",484.1713222,0,12,6,112,179,339,26,2,26850,3.8928571428571432,4.0,1.3333333333333333,14,29.901550454917068,-82.26562266379274,Bradford County,FL
"Douglas County, NE",483.3822237,41,196,824,1536,3684,14152,2893,73,537256,4.09,4.0,1.98,50,41.26275917296039,-96.14352471938356,Douglas County,NE
"Colbert County, AL",482.3917828,2,15,34,212,636,1342,112,3,54520,4.22,4.5,1.7209302325581397,50,34.775759158902694,-87.682580428763,Colbert County,AL
"Passaic County, NJ",481.7351959,30,42,1213,1151,3093,6599,1392,19,505672,4.06,4.0,2.0,50,40.99562983326698,-74.2940801440229,Passaic County,NJ
"Gray County, TX",481.7081109,0,2,6,103,269,609,35,4,23043,3.765957446808511,4.0,1.206896551724138,47,35.489323825054065,-100.9236006147958,Gray County,TX
"Portsmouth city, VA",481.2639676,11,43,181,228,1220,3419,215,14,96205,4.27,4.5,1.6458333333333333,50,36.85062137316634,-76.31192266293299,Portsmouth city,VA
"Monroe County, AL",481.20165499999996,0,8,8,91,129,423,25,2,22236,3.3529411764705883,3.5,1.3,17,31.498855087257045,-87.32930785092562,Monroe County,AL
"Union County, NM",480.54919910000007,0,1,2,18,77,42,12,0,4370,3.928571428571429,4.0,1.25,21,36.436138867202594,-103.33954345346243,Union County,NM
"Hardin County, TN",480.14135360000006,1,11,12,101,282,586,50,6,26034,3.1666666666666665,3.5,1.2857142857142858,24,35.220679933583654,-88.23623126409932,Hardin County,TN
"Clarke County, AL",480.0253898,0,16,12,93,172,399,34,1,25207,3.56,3.5,1.1052631578947372,25,31.50870374573768,-87.87985294164652,Clarke County,AL
"Pointe Coupee Parish, LA",480.02133430000004,0,3,4,101,111,187,21,0,22499,3.2666666666666666,3.5,1.3333333333333333,15,30.69258027165033,-91.47525288438149,Pointe Coupee Parish,LA
"Crenshaw County, AL",479.0504791,1,3,3,60,85,133,23,2,13986,3.7777777777777777,4.0,1.0,9,31.710559063016433,-86.2671475451248,Crenshaw County,AL
"Marion County, FL",479.01067699999993,21,166,162,1267,1989,5080,242,16,337362,4.23,4.0,1.7173913043478262,50,29.18299256373941,-82.12572836999631,Marion County,FL
"Palm Beach County, FL",478.65754339999995,74,381,1883,4230,10230,31147,2641,157,1372171,4.44,4.5,1.891304347826087,50,26.61303620379211,-80.13445526882441,Palm Beach County,FL
"Pima County, AZ",478.147697,56,345,1481,2883,8284,11683,3599,310,996554,4.06,4.0,1.6428571428571428,50,32.291519117939146,-111.15312385252413,Pima County,AZ
"Multnomah County, OR",477.46154400000006,24,287,1170,2177,5621,27569,4482,293,766135,4.24,4.5,1.6956521739130437,50,45.56523882152121,-122.40943171525316,Multnomah County,OR
"Georgetown County, SC",476.5056254,4,14,31,239,710,1527,125,6,60440,3.99,4.25,1.4117647058823528,50,33.37274378730901,-79.28703025112947,Georgetown County,SC
"Chesterfield County, SC",476.22139969999995,2,14,21,183,362,1219,84,10,46197,4.08,4.0,1.4358974358974361,50,34.45421326959432,-80.05337678304986,Chesterfield County,SC
"Crisp County, GA",475.6599246,3,9,44,55,333,993,36,4,23336,3.275,3.5,1.3125,40,31.956244054676514,-83.7635418088817,Crisp County,GA
"Pottawatomie County, OK",473.593974,4,32,22,279,659,1645,240,3,71158,3.2666666666666666,3.0,1.4444444444444444,15,35.26049180378851,-96.96306144708907,Pottawatomie County,OK
"De Baca County, NM",471.9454641,0,1,0,8,9,6,1,0,1907,3.5294117647058822,3.5,1.4210526315789471,34,34.7206363741326,-104.52759112542843,De Baca County,NM
"Calhoun County, SC",471.6041182,0,6,9,56,221,269,50,2,15055,3.1428571428571432,3.5,1.5,7,33.67353945776277,-80.80314528867501,Calhoun County,SC
"Radford city, VA",471.36871510000003,1,9,8,63,108,394,21,3,17184,3.69,4.0,1.4210526315789471,50,37.13397981358529,-80.5654752116152,Radford city,VA
"Broward County, FL",470.94805210000004,80,401,3408,4771,17400,45279,4320,180,1838844,3.92,4.0,1.9111111111111112,50,26.100626830657905,-80.3777074125304,Broward County,FL
"Raleigh County, WV",470.6150977,9,36,99,227,1054,2126,132,14,78833,3.71,4.0,1.5777777777777775,50,37.78894047751061,-81.19396010410306,Raleigh County,WV
"San Miguel County, NM",469.50001749999996,0,5,8,121,155,273,24,6,28541,3.82,4.0,1.5121951219512195,50,35.447212574053395,-105.02836551899442,San Miguel County,NM
"Muscatine County, IA",469.2314875,0,40,7,154,259,728,41,12,42836,4.02,4.0,1.5238095238095235,50,41.43086411292068,-91.042399051584,Muscatine County,IA
"Dimmit County, TX",468.01872069999996,0,4,2,45,167,249,22,4,10897,2.3,2.25,1.1666666666666667,10,28.512901716347923,-99.8446156200074,Dimmit County,TX
"Lincoln County, TN",466.80343710000005,2,6,6,143,196,573,27,4,33633,3.581081081081081,4.0,1.318181818181818,37,35.13945251276114,-86.56313520566715,Lincoln County,TN
"Okaloosa County, FL",464.3699274,2,72,108,718,920,3889,219,2,193811,3.71,3.5,1.431818181818182,50,30.74527488697253,-86.56755254450476,Okaloosa County,FL
"Reno County, KS",464.24676739999995,2,28,26,242,637,2141,159,41,64190,4.15,4.0,1.3863636363636365,50,38.037912640929754,-97.92712627622294,Reno County,KS
"Decatur County, GA",464.1982529,3,2,11,111,254,743,25,0,27359,3.5641025641025643,4.0,1.3703703703703705,39,30.90267181578453,-84.58011973174885,Decatur County,GA
"Hamblen County, TN",462.948283,0,17,58,217,374,1955,112,12,63074,4.06,4.0,1.4285714285714286,50,36.209391278130134,-83.30553691194638,Hamblen County,TN
"McCurtain County, OK",462.7249357,0,9,10,134,311,689,63,14,33065,3.7142857142857135,4.0,1.3529411764705883,35,34.066655082250726,-94.74132119859463,McCurtain County,OK
"Ramsey County, MN",462.49008,15,233,730,1458,4257,12857,2442,175,526714,4.22,4.0,1.7142857142857142,50,44.96489686904249,-93.13256921609691,Ramsey County,MN
"Tulare County, CA",462.40941730000003,33,115,412,1540,4364,9194,1835,39,454143,4.27,4.5,1.6666666666666667,50,36.309508570504015,-119.04184788670788,Tulare County,CA
"Ouachita Parish, LA",462.1687364,11,29,175,507,2149,5208,184,8,156220,4.0,4.0,1.7234042553191489,50,32.51315965352113,-92.12784762920538,Ouachita Parish,LA
"Marengo County, AL",461.4239643,3,8,9,72,148,356,21,4,20155,3.49,3.5,1.2258064516129032,50,32.35016245740221,-87.83515356742191,Marengo County,AL
"Hampshire County, WV",460.65259119999996,0,6,2,100,97,119,15,2,23445,3.333333333333333,3.5,1.3076923076923077,18,39.321614653874654,-78.6850275384654,Hampshire County,WV
"Clinton County, IA",460.5534903,0,17,21,185,356,1025,65,11,48420,3.875,3.75,1.1,16,41.829697452548345,-90.54459407969392,Clinton County,IA
"Barrow County, GA",460.44252869999997,0,11,22,296,409,1149,94,7,71453,3.84,4.0,1.4418604651162792,50,34.00181602006609,-83.73669333372878,Barrow County,GA
"Erie County, NY",459.3060294,50,211,1602,2361,6019,19729,1481,341,919866,4.08,4.0,1.826086956521739,50,42.7838318620049,-78.80010133889215,Erie County,NY
"Coffee County, TN",459.1712428,2,7,17,219,356,1183,69,4,53357,3.69,3.5,1.2894736842105263,50,35.480260696857854,-86.06533336262255,Coffee County,TN
"Richmond County, NC",459.0022627,8,24,49,132,974,1714,96,22,46405,3.44,3.5,1.2121212121212122,50,34.94135551278771,-79.75795275110437,Richmond County,NC
"Bourbon County, KS",457.8507945,0,8,1,59,136,316,28,6,14852,3.7083333333333335,4.0,1.181818181818182,36,37.86755947262312,-94.79093738942659,Bourbon County,KS
"Atlantic County, NJ",457.47511439999994,30,74,479,678,1794,6331,301,37,275862,4.01,4.0,1.7111111111111108,50,39.473053776107115,-74.62088252658752,Atlantic County,NJ
"White Pine County, NV",457.39286069999997,0,11,1,34,61,58,4,1,10057,3.8369565217391295,4.0,1.56,46,39.22110127336751,-114.81270157613487,White Pine County,NV
"Sussex County, DE",457.297156,6,72,170,697,1850,4502,210,8,206649,3.57,4.0,1.4166666666666667,50,38.711040222197695,-75.37442535144794,Sussex County,DE
"Kanawha County, WV",455.36531169999995,11,55,148,657,1540,4835,359,58,191275,3.96,4.0,1.8297872340425527,50,38.336197353788414,-81.61511911197542,Kanawha County,WV
"Meigs County, TN",454.97467589999997,2,9,1,41,75,166,36,4,11649,4.3,4.5,1.25,5,35.60921035263218,-84.65342130330636,Meigs County,TN
"Richmond County, GA",454.9437385,28,90,546,255,3186,7591,1193,51,202003,4.01,4.0,1.66,50,33.454022868548016,-82.06401092776558,Richmond County,GA
"Iron County, MO",454.3696829,1,1,3,42,47,56,10,2,10344,4.142857142857143,4.5,2.5,7,37.49984029964058,-90.82265941799129,Iron County,MO
"Newberry County, SC",453.0796088000001,1,4,22,143,264,763,40,5,37521,3.46,3.75,1.4358974358974361,50,34.275435641952335,-81.59467265480855,Newberry County,SC
"Morris County, TX",451.9245753000001,0,1,4,53,114,179,4,2,12834,3.1,3.25,1.6666666666666667,10,33.0575544527607,-94.73782730901225,Morris County,TX
"Florence County, SC",451.83118139999993,6,38,133,448,1466,4214,361,10,138326,4.09,4.0,1.574468085106383,50,34.16059379403085,-79.78001282399882,Florence County,SC
"Hunt County, TX",451.4750482,1,21,65,306,869,1825,169,10,87048,3.6,3.5,1.3555555555555556,50,33.111262035815464,-96.10717343004309,Hunt County,TX
"Roosevelt County, NM",451.01478330000003,0,16,3,71,219,348,32,0,19955,3.88,4.0,1.4222222222222225,50,34.321144952116086,-103.25567406436741,Roosevelt County,NM
"Claiborne Parish, LA",450.4504505,0,9,6,60,131,219,32,3,16650,4.0,4.0,1.3333333333333333,7,32.732020759680736,-93.1235238582987,Claiborne Parish,LA
"Canadian County, OK",450.35401950000005,7,51,107,403,1200,2956,460,20,126123,3.4054054054054053,3.5,1.2857142857142858,37,35.52019991895262,-97.95150020907154,Canadian County,OK
"Schenectady County, NY",450.00096569999994,7,37,227,428,1059,3626,191,71,155333,4.12,4.0,1.6888888888888889,50,42.81123904941362,-73.95197781148019,Schenectady County,NY
"Liberty County, TX",449.8940279,1,18,36,291,544,1587,196,13,76907,3.6666666666666665,4.25,1.25,6,30.18177427812632,-94.76643399010159,Liberty County,TX
"Russell County, AL",449.7776286,2,24,70,172,776,1484,218,0,59585,4.2,4.0,1.7659574468085106,50,32.47381452895359,-84.99449463622408,Russell County,AL
"Inyo County, CA",449.4503709,0,4,4,75,103,211,11,0,18467,4.06,4.5,1.75,50,36.54858117047626,-116.99893801459973,Inyo County,CA
"Saluda County, SC",447.9617739,0,4,6,80,160,250,28,1,20091,2.71875,2.75,1.0,16,33.95968151038371,-81.78523623629361,Saluda County,SC
"Lawrence County, MO",447.81982450000004,1,7,6,157,330,825,87,3,38185,3.25,3.75,1.2727272727272727,22,37.0918299745504,-93.80811127088272,Lawrence County,MO
"Charlottesville city, VA",446.45877019999995,2,16,50,130,165,1250,94,9,44349,4.27,4.5,1.7346938775510203,50,38.03529325285545,-78.48543909713855,Charlottesville city,VA
"Hamilton County, OH",445.8559141,58,296,2077,1156,8318,23723,1601,443,804520,4.31,4.5,1.8478260869565215,50,39.13034003792706,-84.52051243428521,Hamilton County,OH
"Los Angeles County, CA",444.80081399999995,600,1976,18923,23057,49107,142604,40555,2210,10017068,4.33,4.5,1.74,50,33.82488577749464,-118.31144734900593,Los Angeles County,CA
"Mercer County, NJ",444.6376217,26,50,760,811,2447,5057,715,38,370414,4.05,4.0,1.8163265306122451,50,40.28258476302772,-74.69402219398164,Mercer County,NJ
"Rutherford County, TN",444.08228330000003,6,93,195,954,1694,5162,396,14,281029,4.17,4.0,1.72,50,35.8533996893261,-86.4170221562286,Rutherford County,TN
"Walker County, AL",443.9528471,2,16,56,219,780,1839,170,11,65998,3.63,4.0,1.3076923076923077,50,33.83378671155039,-87.26760944769742,Walker County,AL
"Leavenworth County, KS",443.81914689999996,0,24,34,289,464,1142,115,34,78185,3.65,3.75,1.5,50,39.180384633048675,-94.93144610631592,Leavenworth County,KS
"Scott County, IA",443.70103,4,50,156,546,1059,3489,313,21,170385,4.16,4.0,1.64,50,41.55137241193511,-90.55185634935292,Scott County,IA
"Benton County, MO",443.6932178,1,13,4,66,191,314,19,1,18932,3.5178571428571432,4.0,1.4285714285714286,28,38.252858897028005,-93.34217288702824,Benton County,MO
"Putnam County, TN",443.38660319999997,0,21,34,271,711,2075,123,6,73525,4.03,4.0,1.56,50,36.157767206009204,-85.50228458683044,Putnam County,TN
"Dallas County, TX",442.96507199999996,165,706,4889,5227,25141,59144,10235,692,2480331,4.29,4.5,1.9166666666666667,50,32.787498433653084,-96.79475352503543,Dallas County,TX
"Anne Arundel County, MD",442.11083179999997,13,100,538,1806,2588,11324,888,65,555743,4.15,4.0,1.9,50,38.98214686390062,-76.56593781655148,Anne Arundel County,MD
"Guilford County, NC",441.75993370000003,28,93,753,1364,5151,12198,933,183,506610,4.27,4.5,1.8723404255319152,50,36.07438727715765,-79.80786307991127,Guilford County,NC
"Iron County, WI",441.7261298,0,0,0,26,21,59,0,0,5886,4.17,4.25,1.7755102040816326,50,46.261448566250856,-90.0801135931125,Iron County,WI
"Hudson County, NJ",441.3265847,15,84,1323,1493,2664,8135,1504,38,660282,4.31,4.5,1.9333333333333331,50,40.736169948200654,-74.00362689566543,Hudson County,NJ
"Jefferson Parish, LA",440.2358045,37,85,501,1291,3124,11741,997,98,434767,4.33,4.5,1.7916666666666667,50,29.951844212593212,-90.1398990737634,Jefferson Parish,LA
"Grenada County, MS",439.57060889999997,7,5,21,61,278,367,24,0,21612,3.1341463414634148,3.0,1.3103448275862069,41,33.77823126376388,-89.81641761082041,Grenada County,MS
"Catahoula Parish, LA",439.53897249999994,3,1,9,32,46,103,4,0,10238,3.625,3.75,1.6666666666666667,8,31.628061258241324,-91.8237849155956,Catahoula Parish,LA
"Franklin County, OH",438.02376219999996,80,644,3296,1291,16769,34668,3783,587,1212263,4.22,4.0,1.92,50,39.969391012457436,-83.00370193154755,Franklin County,OH
"Alamance County, NC",436.59070589999993,4,35,138,497,1438,3530,250,14,154378,4.16,4.0,1.4791666666666667,50,36.06904387634098,-79.41369767830808,Alamance County,NC
"Madison Parish, LA",435.9855789,0,0,2,50,99,389,1,0,11927,3.2,3.0,1.125,10,32.395990806297604,-91.19484180648888,Madison Parish,LA
"Gulf County, FL",435.908775,1,4,5,59,125,134,8,2,15829,4.24,4.5,1.74468085106383,50,29.833984777763305,-85.22944181799124,Gulf County,FL
"Monroe County, TN",435.2148459,5,3,10,179,337,882,98,13,45265,3.555555555555556,3.75,1.3076923076923077,18,35.45696238047367,-84.3048408014262,Monroe County,TN
"Monterey County, CA",435.1415259,45,94,706,1021,2912,5612,1774,64,428826,4.29,4.5,1.8571428571428568,50,36.49011552861226,-121.67372011995351,Monterey County,CA
"Washington County, AR",434.8227901000001,7,131,70,733,1285,5033,331,30,216410,4.25,4.25,1.6122448979591837,50,36.06250163954051,-94.17518605354869,Washington County,AR
"Laclede County, MO",434.5753778,1,6,5,143,158,784,42,4,35667,3.66,4.0,1.358974358974359,50,37.67070106230876,-92.65911860085001,Laclede County,MO
"Wilbarger County, TX",434.0872744,1,14,1,41,89,258,16,6,13131,3.6296296296296298,4.0,1.2173913043478262,27,34.15533631085868,-99.29438268209739,Wilbarger County,TX
"Sweetwater County, WY",433.27364769999997,3,18,5,170,120,794,38,7,45237,3.74,3.5,1.5531914893617018,50,41.5936112387366,-109.26439260950102,Sweetwater County,WY
"Hemphill County, TX",432.9004329,0,0,0,18,16,44,6,0,4158,3.5,3.5,1.375,10,35.88513040165439,-100.38054675573669,Hemphill County,TX
"San Bernardino County, CA",432.4902041,102,422,2923,5585,18788,32802,11509,367,2088371,3.76,4.0,1.3333333333333333,50,35.51341495990098,-111.77874915768992,San Bernardino County,CA
"Forest County, PA",432.44659939999997,2,4,0,27,83,71,4,3,7631,4.357142857142857,4.5,1.5,7,41.42440119237836,-79.19932265646653,Forest County,PA
"Tuscaloosa County, AL",432.22571339999996,10,56,234,568,1932,5013,367,28,200821,4.05,4.0,1.7346938775510203,50,33.21830860296077,-87.55777052412006,Tuscaloosa County,AL
"Berrien County, MI",432.20055139999994,3,97,111,460,1188,3255,186,33,155252,4.08,4.0,1.5652173913043481,50,42.02344582012985,-86.50207673631556,Berrien County,MI
"DeSoto County, FL",431.67135030000003,1,6,30,112,319,487,23,4,34517,3.5731707317073167,4.0,1.2580645161290325,41,27.209208459461664,-81.85147832356928,DeSoto County,FL
"Spartanburg County, SC",431.3174256,10,104,233,908,2450,6573,633,54,290969,4.14,4.0,1.58,50,34.94413291735969,-81.95094085910212,Spartanburg County,SC
"Volusia County, FL",431.30990419999995,19,96,422,1623,4095,12072,1046,29,500800,4.16,4.0,1.6041666666666667,50,29.01878745813439,-81.29495275835717,Volusia County,FL
"Bexar County, TX",431.06056849999993,101,649,2038,5047,18580,69589,7155,336,1817610,4.17,4.0,1.9387755102040816,50,29.432095456850618,-98.48431743089563,Bexar County,TX
"Worcester County, MA",430.9694898,14,177,631,2665,4731,11446,877,67,809106,4.22,4.0,1.7755102040816326,50,42.29946933340189,-71.81458100695293,Worcester County,MA
"Wichita County, TX",430.1498709,6,46,154,362,1439,3973,264,11,132047,3.8055555555555554,4.0,1.3076923076923077,18,34.0142217804681,-98.62228546826626,Wichita County,TX
"Clay County, AL",430.075634,0,0,3,55,26,95,11,24,13486,3.6818181818181817,4.0,1.0,11,33.2791257541425,-85.85643899284557,Clay County,AL
"Black Hawk County, IA",430.0393826,5,93,75,397,1061,2418,140,28,132546,4.18,4.0,1.5434782608695652,50,42.49179278406725,-92.36468123734798,Black Hawk County,IA
"Webb County, TX",429.3415113,8,86,187,846,1825,8845,410,87,262495,2.25,1.75,1.5,6,27.68580192532845,-99.46309898751429,Webb County,TX
"Lawrence County, TN",428.6734937,2,9,8,160,363,823,51,12,41990,3.2906976744186047,3.5,1.4722222222222223,43,35.25385269965611,-87.32790787729763,Lawrence County,TN
"Pierce County, WA",428.3049688,38,289,910,2274,9180,20856,3967,169,819743,3.77,3.75,1.5789473684210529,50,47.11616360503808,-122.1319979867354,Pierce County,WA
"Polk County, GA",427.36080419999996,3,12,49,112,580,1254,91,5,41183,3.2976190476190474,3.5,1.25,42,34.015204159255674,-85.16450432963008,Polk County,GA
"Kent County, MD",426.1933414,0,7,21,57,113,235,10,1,19944,3.7142857142857135,4.0,1.48,35,39.223088025304286,-76.06124678667167,Kent County,MD
"Cowley County, KS",425.36736270000006,0,18,4,132,259,820,63,8,36204,4.14,4.0,1.3783783783783785,50,37.30944863198153,-97.08155716597211,Cowley County,KS
"Barton County, KS",425.31535130000003,0,11,8,98,237,721,49,6,27509,4.1,4.5,1.0,5,38.48945363759538,-98.77443248321329,Barton County,KS
"Hockley County, TX",424.98937530000006,1,16,9,74,223,418,11,3,23530,3.28125,3.5,1.5,32,33.587788580102675,-102.36923211844973,Hockley County,TX
"Schoolcraft County, MI",424.39675030000006,0,15,1,19,71,143,4,3,8247,4.24,4.5,1.5384615384615383,50,46.18671728866651,-86.38582779740818,Schoolcraft County,MI
"Webster County, IA",423.82032180000004,0,24,16,117,241,1030,71,10,37044,3.51,3.5,1.4864864864864864,50,42.4700682541525,-94.18894451913746,Webster County,IA
"Rusk County, TX",423.3337063,0,16,24,187,381,1040,72,7,53622,3.3488372093023258,3.5,1.28125,43,32.151913276296426,-94.78945731160195,Rusk County,TX
"Jackson County, FL",423.1225216,0,17,27,163,245,577,24,5,48922,3.53,3.5,1.3235294117647058,50,30.760989727749873,-85.21053248767417,Jackson County,FL
"Warren County, IL",423.1073,0,4,2,69,133,460,10,4,17726,3.7884615384615374,4.0,1.181818181818182,26,40.915453370599344,-90.64711266910452,Warren County,IL
"Cumberland County, TN",422.85873389999995,2,18,22,201,581,1292,96,14,57466,3.97,4.0,1.5853658536585369,50,35.96624712250299,-85.00160681856438,Cumberland County,TN
"Stone County, MO",421.76566439999993,1,5,1,125,160,396,37,5,31297,3.761363636363636,4.0,1.3548387096774193,44,36.71275930403401,-93.39478136905248,Stone County,MO
"McLennan County, TX",421.56525769999996,9,115,218,676,2237,6380,286,63,241481,4.23,4.0,1.5,50,31.54499302854301,-97.14586559118958,McLennan County,TX
"Trousdale County, TN",421.56361780000003,0,3,1,29,31,118,5,0,7828,3.45,3.5,1.0,10,36.397720037203186,-86.16478229194712,Trousdale County,TN
"Barnstable County, MA",421.41494950000003,1,63,79,763,2223,3459,156,36,214990,4.06,4.0,1.8611111111111112,50,41.72220066287108,-70.24850017362586,Barnstable County,MA
"Coffee County, GA",421.101342,4,22,55,101,479,1458,56,7,43220,3.5625,3.5,1.34375,48,31.506159959026657,-82.84977184255176,Coffee County,GA
"Winkler County, TX",420.72048380000007,0,0,1,31,17,41,6,0,7606,2.8666666666666667,3.0,1.2,15,31.86162735281702,-103.02872108041906,Winkler County,TX
"Wayne County, NC",420.603132,20,8,108,388,1576,2981,263,6,124583,4.01,4.0,1.5,50,35.38482709599018,-77.98029119564978,Wayne County,NC
"La Salle Parish, LA",419.57095489999995,0,1,0,61,24,89,11,0,14777,4.1923076923076925,4.5,1.4444444444444444,13,31.68444007524097,-92.13127775533928,La Salle Parish,LA
"White County, TN",419.1434233,1,6,6,97,169,518,51,5,26244,3.844827586206896,4.0,1.2,29,35.937005399370854,-85.47991587505365,White County,TN
"Stonewall County, TX",418.9944134,0,0,0,6,2,2,1,0,1432,4.2,4.5,1.0,5,33.13505376423282,-100.23643841631001,Stonewall County,TX
"Tipton County, TN",418.9263794,5,19,32,202,368,901,87,5,61586,3.1428571428571432,3.25,1.318181818181818,28,35.45388726622879,-89.78400772058953,Tipton County,TN
"Brazos County, TX",418.8734225,5,67,109,670,1287,4322,164,24,203164,4.19,4.0,1.4693877551020411,50,30.63699413130482,-96.33728169888843,Brazos County,TX
"Dorchester County, SC",418.1654367,8,42,129,429,973,3223,414,13,145397,4.333333333333333,4.25,1.5,6,33.051390318768966,-80.30227782723011,Dorchester County,SC
"Finney County, KS",417.812281,0,20,12,123,150,832,28,15,37098,3.81,3.75,1.5897435897435896,50,37.94929978639847,-100.732890524417,Finney County,KS
"Newport News city, VA",416.9871443,21,52,271,415,1038,4615,265,71,182020,4.26,4.5,1.7291666666666667,50,37.090156634306936,-76.48849283767265,Newport News city,VA
"Jasper County, MO",416.67382599999996,3,46,71,365,1054,4147,368,39,116398,3.765957446808511,4.0,1.1891891891891893,47,37.165897321979884,-94.3216010205387,Jasper County,MO
"Tarrant County, TX",416.156389,73,687,2167,5028,16077,46906,4559,228,1911541,4.28,4.5,1.875,50,32.75518254882673,-97.3308850307036,Tarrant County,TX
"Cherokee County, AL",415.98290269999995,1,4,2,102,329,610,75,12,26203,3.4393939393939394,3.5,1.3157894736842106,33,34.37022993006694,-85.30814929384222,Cherokee County,AL
"Cole County, MO",415.9115503,2,16,41,260,332,1529,61,10,76699,4.16,4.0,1.5217391304347827,50,38.57733726839839,-92.19689908497415,Cole County,MO
"Desha County, AR",415.8336665,0,6,8,38,106,175,13,3,12505,4.078125,4.5,1.5882352941176472,32,33.77190008339671,-91.37155178186691,Desha County,AR
"Hopewell city, VA",415.1062582,2,3,32,55,209,617,54,5,22163,3.84,4.0,1.5869565217391304,50,37.265589004584854,-77.33923838937456,Hopewell city,VA
"Lake County, IN",414.68615710000006,62,122,685,1169,4241,12146,1911,154,491456,4.08,4.0,1.8043478260869563,50,41.452221936365206,-87.3674753206725,Lake County,IN
"Orangeburg County, SC",414.5499329,13,32,117,214,1353,2713,486,23,90942,3.81,4.0,1.4242424242424243,50,33.49909312574311,-80.85148170945506,Orangeburg County,SC
"Huerfano County, CO",414.17395310000006,0,4,6,17,47,97,11,0,6519,4.35,4.5,1.5581395348837208,50,37.79898718396183,-104.73478943516243,Huerfano County,CO
"Pike County, AL",413.92963199999997,4,6,21,107,316,779,61,7,33339,3.54,3.5,1.375,50,31.7925159912448,-85.96051253980099,Pike County,AL
"Polk County, MO",413.24982239999997,1,8,2,117,215,525,26,2,30974,3.321428571428572,3.5,1.3043478260869563,28,37.620676553356994,-93.38275528860744,Polk County,MO
"Oglethorpe County, GA",412.4278251,1,12,4,43,112,320,12,1,14548,3.7142857142857135,4.5,2.0,7,33.879892999363115,-83.13477792660457,Oglethorpe County,GA
"Zavala County, TX",411.319513,1,0,2,47,58,93,9,0,12156,3.52,3.5,1.3333333333333333,50,28.989490929848056,-99.79601569464774,Zavala County,TX
"Dale County, AL",410.9534119,1,8,32,164,325,930,63,13,49884,3.85,4.0,1.425,50,31.393282384527822,-85.6650159623721,Dale County,AL
"Dallam County, TX",410.93949269999996,1,4,1,23,51,120,9,1,7057,3.85,4.0,1.3157894736842106,50,36.12423163754862,-102.48997327460943,Dallam County,TX
"Mendocino County, CA",410.58812739999996,6,27,46,279,563,981,190,38,87192,3.808510638297872,4.0,1.4358974358974361,47,39.40570491170666,-123.35300150223402,Mendocino County,CA
"Vernon County, MO",410.52078860000006,0,4,9,73,242,870,72,5,20949,3.38,3.5,1.1904761904761905,25,37.837500341817844,-94.34658753215484,Vernon County,MO
"Lassen County, CA",410.4094767,1,8,11,112,166,334,31,9,32163,3.5121951219512195,3.5,1.393939393939394,41,40.39049656170318,-120.62446066070277,Lassen County,CA
"Maricopa County, AZ",410.2097764,208,1088,5341,9810,32859,90864,11818,758,4009412,4.26,4.5,1.5172413793103448,50,33.43892127696044,-112.06611712027586,Maricopa County,AZ
"Hennepin County, MN",410.08426910000003,49,586,2083,2198,7820,29171,2592,221,1198778,3.99,4.0,1.94,50,45.01297128471654,-93.44173237210501,Hennepin County,MN
"Allegheny County, PA",409.4916311,81,125,1732,3105,5727,19160,1167,408,1231527,4.31,4.5,1.8837209302325584,50,40.439197519659984,-79.99998043875895,Allegheny County,PA
"Ellis County, KS",409.4835002,0,7,8,104,114,638,46,5,29061,3.78,4.0,1.4146341463414631,50,38.882150894447534,-99.3223875239406,Ellis County,KS
"Ware County, GA",408.86051139999995,3,7,44,92,309,1275,56,8,35709,4.36,4.5,1.5957446808510638,50,30.54800452546851,-81.81202335469341,Ware County,GA
"Childress County, TX",408.7385483,0,0,1,28,36,56,7,0,7095,3.3235294117647056,3.5,1.1666666666666667,17,34.43157344614977,-100.21902271624252,Childress County,TX
"Hidalgo County, NM",408.2509669,0,0,4,15,9,19,3,2,4654,3.82,4.0,1.1666666666666667,25,32.326655834062606,-108.71396314752268,Hidalgo County,NM
"Bartow County, GA",407.8085966,2,23,38,350,1032,2545,287,6,101273,3.98,4.0,1.5652173913043481,50,34.189770168836205,-84.79342914007012,Bartow County,GA
"Hardin County, IL",406.6012916,0,0,1,16,1,8,1,0,4181,4.3125,4.25,2.0,8,37.48806669875545,-88.22126137904854,Hardin County,IL
"Clay County, FL",406.3157144,7,49,86,656,842,3330,126,22,196399,3.9736842105263164,4.5,1.4,19,29.997459322525444,-81.74986045078803,Clay County,FL
"Elkhart County, IN",405.8575111,8,61,149,596,1247,3629,334,34,200563,4.05,4.0,1.5918367346938775,50,41.61294144276958,-85.86840656943555,Elkhart County,IN
"Washington County, TN",404.632565,1,20,60,427,1004,2943,157,23,125546,4.09,4.0,1.6382978723404256,50,36.321635468112575,-82.41799826056722,Washington County,TN
"Bell County, TX",402.94575679999997,17,140,348,812,2792,6589,335,51,326843,3.98,4.0,1.5106382978723405,50,31.04345970954133,-97.47045743461594,Bell County,TX
"Cedar County, MO",402.5012578,0,5,4,47,99,227,7,2,13913,3.727272727272727,4.0,1.375,11,37.69009937769714,-93.80566620473772,Cedar County,MO
"Charleston County, SC",402.3572772,26,95,348,1031,1876,8817,891,38,372803,4.36,4.5,2.06,50,32.79623864202188,-79.90943568979121,Charleston County,SC
"Camden County, GA",402.1291476,2,7,23,175,343,1055,46,5,51476,4.333333333333333,5.0,1.3333333333333333,9,30.89143072973045,-81.68450232288369,Camden County,GA
"Greene County, TN",401.3652277,5,15,41,213,626,1402,128,14,68267,3.96,4.0,1.4242424242424243,50,36.17030616615499,-82.81894962132853,Greene County,TN
"Houston County, AL",401.2810125,7,42,108,259,1095,2380,184,18,103668,4.05,4.0,1.6170212765957446,50,31.216155305267755,-85.40763345341077,Houston County,AL
"Curry County, NM",401.2016285,4,26,22,151,729,1558,85,35,50598,3.74,4.0,1.4888888888888892,50,34.414379703266825,-103.19506315670696,Curry County,NM
"Contra Costa County, CA",400.6561842,56,169,1603,2556,8556,16973,7258,164,1094205,4.13,4.0,1.9148936170212767,50,37.91655897366521,-122.04337967416944,Contra Costa County,CA
"Wilson County, NC",400.406529,9,6,78,234,895,1938,138,17,81667,3.96,4.0,1.3636363636363635,50,35.736238794280546,-77.94418173923358,Wilson County,NC
"Wharton County, TX",400.3299689,1,8,24,132,296,796,40,9,41216,3.35,3.5,1.3043478260869563,30,29.207916114167183,-96.2702793098218,Wharton County,TX
"Mariposa County, CA",399.8873557,3,2,2,64,93,222,22,0,17755,4.256410256410256,4.5,1.5925925925925926,39,37.50119975254065,-119.95524438516284,Mariposa County,CA
"Montgomery County, OH",399.5550961,32,251,933,925,5833,12696,1261,218,535846,4.21,4.0,1.7173913043478262,50,39.7495923215821,-84.18584393054769,Montgomery County,OH
"Pitt County, NC",399.3963148,11,36,207,442,1763,3982,188,4,174263,4.21,4.0,1.62,50,35.58898398570202,-77.38207517685541,Pitt County,NC
"La Paz County, AZ",398.5435938,0,0,2,79,151,408,54,0,20324,3.9,4.0,1.391304347826087,50,33.792625519012944,-114.27727732372541,La Paz County,AZ
"Monroe County, PA",398.4492785,4,50,95,517,1202,3185,99,19,167148,3.92,4.0,1.7083333333333333,50,41.0305266968343,-75.28149041281922,Monroe County,PA
"Fredericksburg city, VA",398.1231338,2,1,21,88,87,991,21,11,28132,4.07,4.0,1.7,50,38.30181837295866,-77.47692700842221,Fredericksburg city,VA
"Massac County, IL",398.06276119999995,1,11,3,45,45,287,11,0,15073,3.333333333333333,3.75,1.5294117647058822,30,37.030687031112535,-88.70881573898994,Massac County,IL
"Logan County, WV",397.36571539999994,3,8,8,124,117,381,61,0,35987,3.847826086956522,4.0,1.25,23,37.850829432171814,-81.97786798676077,Logan County,WV
"Montgomery County, AL",396.6310625,45,45,465,344,3656,7855,1171,66,226659,3.375,4.0,1.3571428571428572,36,32.32348183203139,-86.24872857854336,Montgomery County,AL
"Lake County, MT",396.31939900000003,1,12,1,101,134,522,69,5,29017,3.91,4.0,1.6451612903225807,50,47.634273026933926,-114.13072687180146,Lake County,MT
"Pulaski County, MO",396.2938156,3,16,18,176,349,744,46,6,53748,3.63,3.5,1.574468085106383,50,37.819103420018465,-92.15854549565809,Pulaski County,MO
"Kent County, MI",395.6892392,22,214,639,1585,3878,10346,613,129,621700,4.19,4.0,1.875,50,42.98119800283872,-85.63198202872249,Kent County,MI
"Sequatchie County, TN",395.06845580000004,0,3,3,52,114,287,38,7,14681,3.5357142857142856,3.5,1.5,14,35.347926242242494,-85.38562886754937,Sequatchie County,TN
"Robertson County, TN",394.75832180000003,3,20,53,190,305,1036,67,5,67383,3.52,3.75,1.4594594594594594,50,36.47903094604594,-86.86342869814831,Robertson County,TN
"Henry County, MO",394.39684480000005,0,4,3,80,227,523,46,3,22059,3.310344827586207,3.5,1.4347826086956519,29,38.377609985654814,-93.77901062968859,Henry County,MO
"Clarke County, GA",394.1780398,5,55,162,256,1193,3470,255,25,121265,4.28,4.5,1.6326530612244898,50,33.952908959346,-83.38357921066046,Clarke County,GA
"Dunklin County, MO",394.172553,0,17,11,97,325,893,63,16,31712,4.194444444444445,4.5,1.2,18,36.260011063047095,-90.08644445971704,Dunklin County,MO
"St. Lucie County, FL",393.958833,7,104,223,796,2001,4673,273,15,286832,4.04,4.0,1.6458333333333333,50,27.362337510597328,-80.37648593176812,St. Lucie County,FL
"Uvalde County, TX",393.67154419999997,3,7,3,93,181,595,22,4,26926,3.78,4.0,1.4054054054054057,50,29.304297772451786,-99.75581354111269,Uvalde County,TX
"Franklin city, VA",393.60963189999995,1,4,11,18,40,304,18,1,8638,2.8703703703703702,3.0,1.3333333333333333,27,36.673001234627584,-76.94337498745166,Franklin city,VA
"New Haven County, CT",392.9086256,33,140,1351,1864,4218,18049,2108,58,862287,4.23,4.25,1.6530612244897958,50,41.359404989971594,-72.90788261451411,New Haven County,CT
"McMullen County, TX",392.67015710000004,0,0,0,3,9,27,7,0,764,3.055555555555556,3.5,1.4615384615384617,18,28.477463124727453,-98.25711672149346,McMullen County,TX
"Walker County, TX",392.3449148,1,45,15,209,434,937,56,4,68817,4.01,4.0,1.3111111111111111,50,30.719723776489076,-95.55784114299044,Walker County,TX
"Bacon County, GA",392.296719,0,7,12,25,43,113,5,0,11216,3.4375,3.75,1.2857142857142858,8,31.5426730365166,-82.467282410738,Bacon County,GA
"Smith County, TX",391.98445019999997,6,91,115,635,1890,4673,320,20,216080,4.14,4.0,1.6521739130434785,50,32.353351213022535,-95.30000023010756,Smith County,TX
"Warren County, MS",391.9698038,2,26,31,130,368,1210,80,5,48218,4.01,4.0,1.4418604651162792,50,32.33931884484494,-90.86610751170345,Warren County,MS
"New Hanover County, NC",391.5279907,9,46,300,480,2447,6038,500,20,213267,4.36,4.5,1.836734693877551,50,34.21149399584538,-77.89383394701899,New Hanover County,NC
"Harvey County, KS",391.4682939,0,17,5,114,236,658,37,3,34741,3.54,3.5,1.2682926829268293,50,38.05463554657207,-97.36335567003609,Harvey County,KS
"El Paso County, TX",391.43766360000006,28,220,507,2485,2361,15563,1354,118,827718,4.16,4.0,1.56,50,31.75098528330101,-106.3113985898137,El Paso County,TX
"Garland County, AR",388.9969436,10,37,63,268,1612,3379,240,2,97173,4.15,4.0,1.7441860465116281,50,34.51579520061882,-93.0602259329052,Garland County,AR
"Sierra County, NM",388.8696854,1,3,1,40,86,184,21,0,11572,4.275,4.5,1.375,20,33.129707264171856,-107.25509165842264,Sierra County,NM
"Yuba County, CA",388.6010363,6,27,39,213,612,1148,253,27,73340,3.8,3.5,1.7333333333333334,25,39.19051365356343,-121.24320367968599,Yuba County,CA
"Henry County, AL",387.372803,4,5,6,52,140,186,17,4,17296,2.5,1.0,1.4,7,31.55769893894727,-85.26690171779481,Henry County,AL
"Lincoln County, GA",387.0468327,0,0,4,26,59,152,8,0,7751,3.71875,4.0,1.5,16,33.77993840253135,-82.40343729441659,Lincoln County,GA
"Clark County, AR",386.93224289999995,5,10,4,69,201,486,19,1,22743,3.6764705882352944,4.0,1.2727272727272727,17,34.114757111392876,-93.09398777093529,Clark County,AR
"Colquitt County, GA",386.8179363,4,11,41,123,403,1250,65,9,46275,3.65,4.0,1.1724137931034482,50,31.182771683907863,-83.77068362227627,Colquitt County,GA
"Roosevelt County, MT",386.5168539,0,6,1,36,51,207,12,2,11125,3.4393939393939394,4.0,1.6470588235294117,33,48.41150428569128,-104.97355890853248,Roosevelt County,MT
"Santa Cruz County, CA",386.3870031,10,76,220,735,1633,6104,972,43,269419,4.24,4.5,1.75,50,36.999171555402455,-122.0002535102499,Santa Cruz County,CA
"Bienville Parish, LA",386.2384665,0,4,5,45,60,118,10,0,13981,4.23,4.5,1.4666666666666666,50,32.52607958987059,-93.1543110647566,Bienville Parish,LA
"Macon County, IL",386.17105,6,35,111,270,1090,1776,97,35,109278,4.01,4.0,1.5,50,39.85964249707829,-88.95114720350156,Macon County,IL
"Jennings County, IN",385.96366980000016,0,8,0,102,310,420,15,0,28241,3.625,3.5,1.2352941176470589,28,39.01061670777564,-85.62227031436277,Jennings County,IN
"Chatham County, GA",385.72875439999996,24,39,537,474,2458,6876,759,39,278434,4.34,4.5,1.7959183673469388,50,32.04837644105243,-81.09905800786383,Chatham County,GA
"Shannon County, MO",385.68157169999995,0,2,0,30,28,91,12,0,8297,3.35,3.75,1.1428571428571428,10,37.150491294243714,-91.35768769975377,Shannon County,MO
"Jackson County, AL",385.26184589999997,0,17,2,185,452,858,84,11,52951,3.58,4.0,1.303030303030303,50,34.664195151468256,-86.01764970742101,Jackson County,AL
"Caddo County, OK",385.21321889999996,1,8,3,102,178,286,35,8,29594,4.2,4.0,1.0,5,35.19311945894972,-98.40775024007624,Caddo County,OK
"Adams County, IA",385.2080123,0,1,0,14,11,36,2,0,3894,4.285714285714286,4.5,1.0,7,40.99780831393557,-94.74690436004083,Adams County,IA
"Liberty County, GA",385.1251267,2,26,41,178,601,1482,79,6,64135,3.268292682926829,3.0,1.3666666666666667,41,31.83504526731885,-81.54836809241135,Liberty County,GA
"Panola County, MS",383.6986222,5,5,6,116,627,1005,29,0,34402,3.2307692307692313,3.0,1.2333333333333334,39,34.3332122231098,-89.92774702138615,Panola County,MS
"Bedford County, TN",383.43391210000004,1,19,16,140,236,658,33,2,45901,3.83,3.5,1.2972972972972974,50,35.499291443582905,-86.44428415901663,Bedford County,TN
"Vermilion Parish, LA",383.1029653,7,18,32,170,458,918,47,0,59253,4.23,4.25,1.9148936170212767,50,30.107819350266208,-92.06116880168398,Vermilion Parish,LA
"Terrebonne Parish, LA",382.2650312,5,26,100,300,764,3386,243,8,112749,4.25,4.25,2.148936170212766,50,29.91219102314691,-90.18019317591234,Terrebonne Parish,LA
"Ford County, KS",381.9753583,2,24,16,91,300,864,42,9,34819,3.3421052631578947,3.5,1.4,19,37.76197521152511,-100.01127018834588,Ford County,KS
"Angelina County, TX",381.97184389999995,5,29,53,247,789,2223,108,11,87441,3.6,4.25,1.2,10,31.27505959944955,-94.57748800838564,Angelina County,TX
"Berkeley County, SC",381.9193898,16,64,134,527,1425,4061,513,62,194020,3.36,3.25,1.457142857142857,50,33.186690179197036,-79.9882004942928,Berkeley County,SC
"Irwin County, GA",381.8818288,0,9,0,27,73,171,11,2,9427,3.520833333333333,3.75,1.3333333333333333,24,31.680919112492763,-83.2462046134372,Irwin County,GA
"Niagara County, NY",381.7987482,4,47,207,560,1437,4425,228,61,214249,4.13,4.0,1.4772727272727273,50,43.165528852414774,-78.70931210693831,Niagara County,NY
"DeKalb County, AL",381.6202667,0,20,9,242,558,1085,131,10,71013,4.01,4.0,1.162162162162162,50,34.4626231906703,-85.75110196317945,DeKalb County,AL
"Stephens County, GA",381.5753611,4,5,15,74,161,733,20,0,25683,3.4090909090909087,3.5,1.21875,44,34.56970384964796,-83.30951153172819,Stephens County,GA
"Livingston Parish, LA",381.19251339999994,1,12,60,437,938,2678,126,0,134053,3.947368421052632,4.5,1.1,19,30.44132767220397,-90.69743730453352,Livingston Parish,LA
"Navarro County, TX",380.9484158,0,30,37,116,579,1230,56,1,48038,3.65,3.5,1.4878048780487805,50,32.08712436859837,-96.46597875311113,Navarro County,TX
"Giles County, TN",379.18319069999995,1,10,13,85,210,441,19,4,28746,3.3421052631578947,3.5,1.3076923076923077,38,35.201899878414544,-87.03941058762423,Giles County,TN
"El Paso County, CO",379.058506,20,448,566,1449,4680,14760,2068,117,655044,3.333333333333333,3.25,1.6,6,38.866614514143436,-104.6601323415857,El Paso County,CO
"Butler County, OH",378.9674417,10,194,305,897,3621,11081,421,96,371272,4.23,4.5,1.4090909090909092,50,39.39705890497092,-84.55561248747395,Butler County,OH
"Jasper County, TX",378.6922494,2,32,7,94,201,554,21,1,35649,4.2,4.5,1.625,50,30.40584815404687,-94.18249120368635,Jasper County,TX
"Pickens County, SC",378.0387052,9,34,41,369,1017,3346,333,12,119829,3.91,4.0,1.2857142857142858,50,34.83889182511689,-82.65855352804415,Pickens County,SC
"Warren County, TN",377.8306018,1,16,9,125,262,718,74,7,39965,3.4,3.5,1.3214285714285714,45,35.692149157229856,-85.78481425861172,Warren County,TN
"Elbert County, GA",377.57028419999995,2,3,9,60,204,523,34,0,19599,3.5454545454545454,3.5,1.2307692307692308,22,34.115424354626306,-82.8496485186022,Elbert County,GA
"Summit County, OH",377.428833,27,256,656,1105,4547,11196,997,145,541824,4.13,4.0,1.6458333333333333,50,41.11751701652217,-81.53513856188486,Summit County,OH
"Santa Barbara County, CA",377.0969275,6,146,311,1180,2430,6933,801,54,435697,4.33,4.5,1.9,50,34.42399287928355,-119.71679958798549,Santa Barbara County,CA
"Terrell County, GA",376.85657280000004,2,1,1,30,81,61,6,2,9022,3.125,3.25,1.0,12,31.769151399712623,-84.42905396569563,Terrell County,GA
"San Benito County, CA",376.7361111,1,15,33,168,357,562,104,12,57600,4.34,4.5,1.891304347826087,50,36.62451840808061,-121.7144208761757,San Benito County,CA
"Scott County, KY",376.39898289999996,1,26,33,127,352,1001,71,4,49947,3.77,3.5,1.5,50,38.22842744542211,-84.55135101865666,Scott County,KY
"Charles County, MD",376.15135019999997,6,32,154,383,615,2549,186,30,152864,3.51,3.5,1.5227272727272727,50,38.53221666347229,-76.98754042802784,Charles County,MD
"Allendale County, SC",376.05447710000004,0,1,4,32,151,176,14,3,9839,3.2142857142857144,3.5,1.0,7,33.069926500751656,-81.39269658502509,Allendale County,SC
"Grimes County, TX",376.0378272,1,7,8,85,187,339,42,0,26859,4.0,4.0,1.75,12,30.453841266901584,-95.97840678757477,Grimes County,TX
"Kalamazoo County, MI",375.8885967,13,149,223,580,1635,5447,320,61,256725,4.31,4.5,1.6382978723404256,50,42.25994208999348,-85.58223728636057,Kalamazoo County,MI
"Crawford County, GA",375.8797185,1,1,6,39,162,262,20,0,12504,2.9,3.0,1.5,5,32.74387276479046,-83.93754293746719,Crawford County,GA
"Washoe County, NV",375.8089692,12,75,411,1132,2626,7466,1228,66,433731,4.194444444444445,4.5,1.4444444444444444,18,40.48777997504226,-119.26587916139209,Washoe County,NV
"Assumption Parish, LA",375.21024710000006,2,13,7,65,96,290,21,3,23187,3.2,4.0,2.0,5,29.885504810446577,-91.07368764311478,Assumption Parish,LA
"Onondaga County, NY",374.9036587,15,111,539,1091,2988,8553,592,63,468387,4.2,4.0,1.7551020408163265,50,43.04852211369139,-76.16182999956891,Onondaga County,NY
"Rock Island County, IL",374.8523,4,42,80,426,721,3039,119,26,147258,4.28,4.5,1.6458333333333333,50,41.534140975512535,-90.56691760109872,Rock Island County,IL
"Gaston County, NC",374.8448095,6,50,194,535,1826,4872,377,49,209420,4.15,4.0,1.3863636363636365,50,35.26190013756518,-81.15612007782866,Gaston County,NC
"Anderson County, TX",374.5382996,3,22,23,169,427,847,93,7,57938,4.04,4.0,1.5142857142857142,50,31.75769863744235,-95.63290714732004,Anderson County,TX
"Essex County, MA",374.13940069999995,8,146,561,2138,2930,9992,1459,36,762550,4.16,4.0,1.7391304347826086,50,42.609730990106456,-70.90458949602908,Essex County,MA
"Atkinson County, GA",373.94451150000003,1,2,4,24,72,138,7,0,8290,2.9166666666666665,3.0,1.3333333333333333,6,31.319222116666666,-82.85295090000001,Atkinson County,GA
"Henderson County, TX",373.68922779999997,2,48,18,226,657,1262,172,7,78675,3.69,4.0,1.3421052631578947,50,32.201984714550456,-95.87145949080492,Henderson County,TX
"Wyoming County, WV",373.6044137,1,5,7,73,131,266,25,3,23019,4.133333333333334,4.5,1.181818181818182,15,37.687693321820674,-81.61983162103482,Wyoming County,WV
"Hart County, GA",373.3396212,0,3,6,86,200,677,14,0,25446,3.4722222222222223,3.5,1.36,36,34.35180780315926,-82.92175377737887,Hart County,GA
"Campbell County, TN",372.7819474,1,19,25,105,591,996,59,20,40238,3.4444444444444446,3.5,1.1923076923076923,45,36.34849003207291,-84.1624302580917,Campbell County,TN
"Winston County, AL",372.7325437,1,12,3,74,177,385,48,6,24146,4.16,4.5,1.6052631578947367,50,34.02249839108637,-87.3353712665238,Winston County,AL
"Douglas County, KS",372.63168939999997,0,60,57,309,745,3625,219,39,114322,4.14,4.0,1.62,50,38.960643586366956,-95.24798716209709,Douglas County,KS
"Mason County, IL",371.9820326,0,10,3,40,46,134,15,0,14248,3.875,4.0,1.375,16,40.29731121330449,-90.06179411999884,Mason County,IL
"Kent County, TX",371.74721189999997,0,0,0,3,5,7,1,0,807,3.6875,4.25,1.1666666666666667,8,33.16600099326793,-100.79129673427722,Kent County,TX
"Sunflower County, MS",371.4683716,2,5,28,69,275,552,4,0,27997,4.083333333333333,4.0,1.75,6,33.71946654423674,-90.60511502369962,Sunflower County,MS
"Cass County, MN",371.2134477,3,84,1,18,216,785,58,2,28555,4.13,4.0,1.7551020408163265,50,46.70972739480259,-94.32921298448387,Cass County,MN
"Columbus County, NC",370.3315515,4,17,55,136,959,1325,123,14,57246,3.8409090909090913,4.0,1.2666666666666666,22,34.278451682538254,-78.68326090314991,Columbus County,NC
"Fayette County, KY",369.9404723,16,131,618,377,3087,10620,972,72,308428,4.38,4.5,1.56,50,38.03821924628004,-84.49181293727965,Fayette County,KY
"Seminole County, GA",368.92118500000004,1,1,4,27,55,125,5,0,8945,3.361111111111111,4.0,1.3,18,30.978932663717657,-84.86204038140527,Seminole County,GA
"San Diego County, CA",368.6724057,107,692,3200,7840,14076,43412,12136,346,3211252,3.96,4.0,1.6444444444444444,50,33.02547809923645,-116.86487174195138,San Diego County,CA
"Williams County, ND",368.305457,1,17,2,89,92,793,172,5,29595,3.44,3.5,1.7906976744186047,50,48.13414434940956,-103.59940969529936,Williams County,ND
"Brown County, TX",368.2216747,3,18,10,108,214,935,30,5,37749,3.65,3.5,1.4634146341463414,50,31.723113322065053,-98.97697232302595,Brown County,TX
"Kay County, OK",368.1546249,0,29,33,106,323,1143,70,16,45633,3.86,4.0,1.475,50,36.731023261614254,-97.07287732876414,Kay County,OK
"Taylor County, TX",367.5894928,3,42,126,322,1083,3256,178,19,134117,3.95,4.5,1.6923076923076923,20,32.30469807048396,-99.80963406900537,Taylor County,TX
"Musselshell County, MT",367.249946,0,6,0,11,11,74,6,1,4629,4.333333333333333,4.25,2.0,6,46.41794557837035,-108.53200850410136,Musselshell County,MT
"Spokane County, WA",366.5013204,18,139,658,942,6147,19138,2910,98,479398,4.3,4.5,1.9166666666666667,50,47.658246589890204,-117.42315905304385,Spokane County,WA
"Mercer County, WV",366.22354160000003,5,7,34,181,523,968,112,6,61984,3.47,3.5,1.4054054054054057,50,37.36831180859913,-81.0765360752523,Mercer County,WV
"Rhea County, TN",366.0074432,0,4,8,107,201,483,74,1,32513,3.0,3.0,1.4444444444444444,14,35.65693345716631,-84.88645632570825,Rhea County,TN
"Marshall County, IA",365.9072059,1,1,6,142,319,634,45,11,40994,3.68,3.5,1.3947368421052628,50,42.03005062038736,-92.91875195718352,Marshall County,IA
"Chesapeake city, VA",365.18035660000004,12,36,202,592,1044,5041,293,27,230571,4.28,4.5,1.6938775510204085,50,36.75945832160055,-76.24738400110324,Chesapeake city,VA
"Morgan County, TN",365.0467716,2,5,4,69,161,270,31,1,21915,4.277777777777779,4.5,1.0,9,36.121352261399174,-84.59442516029576,Morgan County,TN
"Plymouth County, MA",365.0020422,7,94,307,1424,2429,6462,408,65,501915,4.01,4.0,1.9574468085106385,50,41.96713923997168,-70.7173515505214,Plymouth County,MA
"Boone County, MO",364.81176769999996,3,46,180,394,1023,4327,200,24,170773,4.14,4.0,1.68,50,38.949072741373726,-92.33168014729472,Boone County,MO
"Lancaster County, NE",364.6022704,4,192,201,686,1755,8718,323,32,297036,4.17,4.0,1.7083333333333333,50,40.8043466478131,-96.69313333466512,Lancaster County,NE
"Allegany County, MD",364.5217013,3,22,42,201,571,1907,67,13,73521,3.98,4.0,1.4651162790697674,50,39.6384159456484,-78.761403768982,Allegany County,MD
"Caldwell County, TX",364.4983687,0,21,15,107,223,523,40,2,39232,4.0,4.0,1.275,50,29.888333445907346,-97.67066107644531,Caldwell County,TX
"Monroe County, AR",364.4884145,1,3,5,19,57,133,6,2,7682,3.8,4.0,1.2727272727272727,50,34.75729456216965,-91.32091853910171,Monroe County,AR
"Pratt County, KS",364.44624419999997,0,3,1,32,64,205,19,2,9878,3.5681818181818183,3.75,1.4375,22,37.64546153849565,-98.73077848198768,Pratt County,KS
"Mahoning County, OH",364.3065135,25,60,311,456,2855,4970,436,283,233869,4.14,4.0,1.6170212765957446,50,41.04131340046687,-80.72915567126951,Mahoning County,OH
"Scurry County, TX",364.1197549,1,9,4,49,108,260,20,1,17302,3.3205128205128207,3.5,1.32,39,32.70966168763101,-100.91359253204851,Scurry County,TX
"Glacier County, MT",363.9275056,1,2,0,47,39,120,10,0,13739,3.9166666666666665,4.0,1.0,6,48.5563121238424,-113.018612780931,Glacier County,MT
"Dixie County, FL",363.8644918,0,5,5,48,213,194,27,4,15940,3.6875,4.0,1.25,8,29.560972629513213,-83.06093628276182,Dixie County,FL
"Oregon County, MO",363.7686431,1,0,1,38,38,70,3,3,10996,3.84,4.0,1.4285714285714286,50,36.773087544664115,-91.40520988005173,Oregon County,MO
"Reynolds County, MO",363.69146839999996,3,0,0,21,33,41,6,7,6599,4.11,4.5,1.3793103448275863,50,37.29999545690463,-90.91253282872431,Reynolds County,MO
"Jackson County, AR",363.3267102,0,10,15,38,235,557,50,7,17615,3.6666666666666665,3.5,1.1428571428571428,15,35.61093103077988,-91.26386505944645,Jackson County,AR
"Newton County, GA",363.1181305,5,26,54,287,986,1612,248,11,102446,3.96,4.0,1.425,50,33.59604076362329,-83.87633647822999,Newton County,GA
"Lamar County, TX",362.1575689,5,10,37,127,441,1267,42,0,49426,3.79,4.0,1.4761904761904765,50,33.6649003528856,-95.53764821535015,Lamar County,TX
"Cape Girardeau County, MO",362.131402,3,15,68,194,691,2528,105,22,77320,3.99,4.0,1.7,50,37.32622523902396,-89.57587171857638,Cape Girardeau County,MO
"Sonoma County, CA",362.0019191,4,152,232,1404,1826,5982,706,62,495025,4.23,4.25,1.9791666666666667,50,38.4787946519214,-122.94249486357471,Sonoma County,CA
"Drew County, AR",361.9909502,1,8,5,54,151,423,23,2,18785,3.2045454545454546,3.5,1.4705882352941178,22,33.63135537080283,-91.80019042664243,Drew County,AR
"Bladen County, NC",361.62213360000004,2,2,20,102,454,961,41,13,34843,3.2321428571428568,4.0,1.3125,28,34.6311554753121,-78.57574736105983,Bladen County,NC
"Walton County, FL",361.1617369,1,14,18,183,375,980,70,5,59807,3.1451612903225805,3.5,1.2608695652173914,31,30.708601018235086,-86.12157615265684,Walton County,FL
"Worcester County, MD",360.32545530000004,1,16,31,138,432,1750,33,9,51620,3.692307692307693,4.0,1.875,13,38.200469592464025,-75.4012877411106,Worcester County,MD
"Poinsett County, AR",360.3230483,2,23,7,55,217,424,16,5,24145,3.6,4.0,1.0,5,35.568819672299,-90.72291885969094,Poinsett County,AR
"Lincoln County, OR",360.30204960000003,0,19,16,132,320,973,60,17,46350,3.96875,4.0,1.3333333333333333,16,44.65207492336557,-123.92653240324933,Lincoln County,OR
"Yakima County, WA",359.45013839999996,19,76,218,575,3051,5578,1684,54,247044,3.88,4.0,1.6829268292682926,50,46.591272469354,-120.58638981128254,Yakima County,WA
"Washington County, IA",358.8462412,0,13,1,65,61,103,9,1,22015,3.4722222222222223,4.0,1.4615384615384617,18,41.29819172093055,-91.69335327957589,Washington County,IA
"Atchison County, KS",358.23034210000014,0,2,6,52,112,343,22,6,16749,4.13,4.0,1.625,50,39.394626643289364,-94.94645121818662,Atchison County,KS
"Robertson County, TX",357.8794128,0,3,5,51,126,194,11,6,16486,3.1818181818181817,3.5,1.125,11,31.04768362759848,-96.46543662314907,Robertson County,TX
"Rockdale County, GA",357.8043926,1,14,56,240,804,2234,271,3,86919,3.91,4.0,1.6875,50,33.65998661835208,-84.03344964262908,Rockdale County,GA
"Navajo County, AZ",357.8017555,3,13,13,355,659,1702,88,8,107322,3.86,4.0,1.3846153846153846,50,35.010750896304934,-110.40790149049784,Navajo County,AZ
"Fannin County, GA",357.74410770000014,0,3,2,80,172,285,39,4,23760,4.01,4.0,1.681818181818182,50,34.84499081497002,-84.33070545176211,Fannin County,GA
"Henry County, VA",357.29897180000006,5,10,28,145,380,823,75,6,52617,3.81,4.0,1.3846153846153846,50,36.69151697771277,-79.87945417269886,Henry County,VA
"Franklin County, IL",357.1246365,0,6,9,125,257,522,39,2,39202,3.44,3.5,1.2307692307692308,50,37.97878411477596,-88.95115621080456,Franklin County,IL
"Gilpin County, CO",357.079093,0,3,0,16,28,185,9,0,5601,3.91,4.0,1.7906976744186047,50,39.770198389706685,-105.51198826920685,Gilpin County,CO
"Floyd County, GA",356.9154987,5,25,56,256,903,2700,144,36,95821,3.96,4.0,1.5777777777777775,50,34.266830605557196,-85.17706455895929,Floyd County,GA
"Monroe County, NY",356.854134,41,175,1011,1447,4968,16774,976,233,749606,4.28,4.5,1.673469387755102,50,43.14671711223736,-77.6122949275569,Monroe County,NY
